Property ID,Built Year,Property Name,Star Rating,Pincode,Property Type,Free WiFi,Entire Property,Latitude,Longitude,Distance from Center
1000000354,2007,HHI Varanasi,4,221002,Hotel,True,False,25.32304,82.99442,1.2317114595273653
1000002357,2013,Somit Paying Guest House,0,221001,Homestay,False,False,25.30464,83.00702,1.640492028750923
1000003219,2012,Hotel Varuna,3,221002,Hotel,True,False,25.31858,82.99159,0.7383125582458556
1000003309,2010,"Ramada Plaza by Wyndham JHV, Varanasi",5,221002,Hotel,True,False,25.33692,82.97637,3.2266783418505534
1000003424,2011,Hotel Surya,3,221002,Hotel,True,False,25.33766,82.98009,3.1257422476976098
1000076462,2018,Hotel Saraswati,0,232101,Hotel,False,False,25.29143,83.10311,11.313241104627718
1000198881,2018,Omkar Guest House,0,221005,Hotel,False,False,25.24146,82.9883,7.862654751457821
1000308251,2020,Spring Sky Mughalsarai By ShriGo Hotels,3,232101,Hotel,False,False,25.28547,83.11107,12.241106500106996
1000408730,2022,De Costa Palace,3,221002,Hotel,False,False,25.34646,82.96978,4.477103830948437
1000448735,2023,HOTEL PSK INN,3,232101,Hotel,False,False,25.28435,83.10725,11.900474518739081
1000424678,2022,Hotel Seema Villa Inn,0,232101,Hotel,False,False,25.25671,83.12553,14.685545759196094
1000389289,2022,FabHotel Kriti Green,3,221108,Hotel,False,False,25.25296,82.94937,7.894900505567298
1000309308,2020,Shri Balaji Guest House,0,221002,Homestay,False,False,25.32454,82.98923,1.4373947111793717
1000202084,2018,The Sunaina,0,221005,Hotel,True,False,25.29048,83.00222,2.5744994078837724
1000243080,2019,Om Guest House,0,221105,Guest House,False,False,25.39957,82.89174,14.073042723021238
1000255158,2019,Relax Paying Guest House Hostel,0,221001,Homestay,False,False,25.30289,83.00743,1.7799780271105445
1000306712,2020,Hotel Station View Mughalsarai,3,232101,Hotel,False,False,25.28264,83.12117,13.302683128294296
1000003430,2007,Palace On Ganges,3,221001,Hotel,True,False,25.28839,83.00597,2.9402009841239134
1000003431,2010,Hotel Zeeras,3,221002,Hotel,True,False,25.33835,82.98103,3.1589037865349554
1000003434,2007,Hotel Pradeep,3,221002,Hotel,True,False,25.32546,82.99978,1.6436212343366858
1000003462,2010,Hotel New Temple's Town,3,221002,Hotel,True,False,25.33298,82.98492,2.4621007370710903
1000003479,2012,Hotel Sarin Inn Heritage,3,221010,Hotel,True,False,25.30788,82.9848,0.9374537019047943
1000003555,2008,The Amayaa,4,221002,Hotel,True,False,25.3375,82.97938,3.139775871522219
1000005919,2008,Hotel Vaibhav,3,221002,Hotel,True,False,25.33273,82.98525,2.4251094515951093
1000005946,2007,Meraden Grand,4,221002,Hotel,True,False,25.33282,82.98508,2.4400567170745804
1000005948,2007,M M Continental,0,221002,Hotel,True,False,25.33717,82.97871,3.136795247148747
1000006239,2012,Hotel Buddha,3,221001,Hotel,True,False,25.32356,83.00143,1.5403353379958105
1000007240,2013,Amritara Suryauday Haveli,4,221002,Hotel,True,False,25.29803,83.00704,2.109051333719319
1000008408,2013,Rivatas By Ideal,5,221002,Hotel,True,False,25.33785,82.9796,3.1654945919472968
1000009197,2014,Ganga Monastery,3,221005,Hotel,True,False,25.28511,83.00806,3.360465441485985
1000009912,2019,The Hotel Swastik Inn,0,221001,Hotel,True,False,25.3088,83.00747,1.5078018357900023
1000009946,2013,Hotel Kiran Palace,3,221002,Hotel,True,False,25.33826,82.97849,3.254980430658165
1000009958,2007,Rashmi Guest House (A Place On River),0,221001,Guest House,True,False,25.30805,83.01103,1.875225653793092
1000009970,2011,PEARL COURTYARD,4,221001,Hotel,True,False,25.30936,83.00447,1.200157925255163
1000009972,2016,Ali Baba Guest House,0,221001,Guest House,True,False,25.30562,83.0089,1.75939844190338
1000009974,2011,Dwivedi Hotels (Palace on Steps),3,221001,Hotel,True,False,25.30507,83.00924,1.8159621754577682
1000009975,2013,Gupta Inn,3,221002,Hotel,True,False,25.33909,82.98315,3.162822234836641
1000010042,2014,Hotel Deva Inn,0,221001,Hotel,True,False,25.30913,83.0063,1.384845355224946
1000010052,2012,HVH KASHI VISHWANATH,3,221001,Hotel,True,False,25.30786,83.00609,1.4046340256285166
1000010061,2014,Hotel Divine Destination,3,221001,Hotel,True,False,25.30913,83.0041,1.1710012443352684
1000011076,2012,Hotel Central Residency,3,221001,Hotel,True,False,25.3174,82.99073,0.6340870828122004
1000011540,2014,Hotel Janhvi International,3,221002,Hotel,True,False,25.323,82.988,1.313911236746549
1000011987,2019,Varanasi Homestay | A Homlee Stay,3,221002,Homestay,False,False,25.33983,82.98537,3.1807606597339615
1000012082,2013,PG On Ganges,0,221001,Hotel,True,False,25.29262,83.00661,2.5621131961813166
1000012257,2014,The Sapphire Grand,3,221002,Hotel,True,False,25.33867,82.98163,3.169815964439347
1000012493,2011,Bedzzz Varanasi by Leisure Hotels |1 Km from Dashashwamedh Ghat,3,221001,Hotel,False,False,25.30916,83.00198,0.9669292905356004
1000012503,2013,HOTEL VARANASI PALACE,3,221002,Hotel,True,False,25.32571,82.98949,1.5575066688621952
1000012746,2014,Hotel Alka,3,221001,Hotel,True,False,25.30897,83.01207,1.9564740903327238
1000013035,2014,Hotel Kanishka,0,221002,Hotel,False,False,25.3255,82.99518,1.5131744105256542
1000013236,2014,Hotel Banaras Haveli,3,221005,Hotel,True,False,25.28862,83.00648,2.940776336156154
1000013289,2011,Diamond Hotel,3,221010,Hotel,True,False,25.29803,83.00155,1.784514107019647
1000013377,2016,Teerth Guest House,0,221001,Guest House,True,False,25.31,83.01,1.733246413502899
1000014498,2014,Raj Mahal Hotel,0,221010,Hotel,False,False,25.30792,82.99744,0.6467797685070541
1000015072,2012,NEW HOTEL BROADWAY,4,221001,Hotel,True,False,25.29689,83.00257,1.9453615490115304
1000015116,2011,Hotel Padmini International,3,221010,Hotel,False,False,25.30754,82.9835,1.0702080952029591
1000015156,2011,Hotel Divya,0,221003,Hotel,True,False,25.28825,83.00428,2.8826319805012974
1000015160,2013,OM GUEST HOUSE,0,221005,Guest House,True,False,25.28575,83.00521,3.174999076364092
1000015162,2013,Kesher Paying Guest House,0,221005,Guest House,True,False,25.28477,83.00551,3.2871449963360213
1000015168,2011,Hotel Haifa,3,221005,Hotel,True,False,25.2887,83.00412,2.8303225145890996
1000015172,2014,Hotel Plaza Inn,3,221002,Hotel,False,False,25.32643,82.98901,1.6464970661239398
1000015178,2012,Hotel City Inn,3,221002,Hotel,True,False,25.32764,82.98895,1.7788070883255827
1000015212,2011,Hotel Pratap Palace,3,221002,Hotel,True,False,25.32578,82.98762,1.616776486069218
1000015286,2015,Hotel Grand Continental,3,221010,Hotel,True,False,25.32617,82.98975,1.602056976252985
1000015348,2014,Hotel Dolphin International,3,221010,Hotel,True,False,25.30015,82.99969,1.488361272738888
1000015352,2014,Hotel Premiere Villa,3,221005,Hotel,True,False,25.28343,82.9995,3.250448766365351
1000015992,2014,Hotel Janki International,3,221010,Hotel,True,False,25.31122,82.98713,0.5879197985188623
1000016398,2014,Hotel Pragya International,0,221001,Hotel,False,False,25.31037,83.00571,1.3004418880812527
1000016580,2014,Hotel Ganesha,0,221005,Hotel,True,False,25.28904,83.00385,2.7848504874657145
1000016788,2014,Hotel Chandra,0,221002,Hotel,True,False,25.31361,82.98917,0.413832054926942
1000016862,2018,Hotel J S Residency,3,221001,Hotel,False,False,25.29865,83.00191,1.743135015999327
1000016910,2013,Hotel Dwarika,0,221005,Hotel,False,False,25.27759,83.00597,4.050353387548771
1000017512,2014,Hotel Hari Vilaas,3,221001,Hotel,True,False,25.30933,82.9947,0.35188099933894545
1000017520,2020,Puja Residency,3,221010,Hotel,False,False,25.30275,82.97392,2.1706303461821173
1000017594,2014,Gautam Hotel,3,221001,Hotel,True,False,25.32432,83.00244,1.6674475165291547
1000018370,2013,Hotel Regency,3,221002,Hotel,True,False,25.32993,82.99197,1.9906434843635235
1000018388,2014,Hotel K. J. International,3,221006,Hotel,True,False,25.4297,82.86224,18.53363682215325
1000018396,2017,Galaxy Inn,0,221007,Hotel,False,False,25.35777,83.01157,5.419044157441073
1000018668,2015,Assi River Guest House,0,221005,Guest House,True,False,25.289,83.00366,2.781458167248659
1000019048,2014,Hotel Madhuvan Palace,3,221004,Hotel,False,False,25.2872,82.96925,3.6455022309217573
1000019994,2012,Prince Palace,0,221002,Guest House,True,False,25.3522,82.99816,4.495836045693861
1000019996,2013,Hotel Heritage Inn,3,221001,Hotel,True,False,25.29343,83.00496,2.3987299759500416
1000019998,2014,Hotel Park Plaza,3,221002,Hotel,True,False,25.33777,82.97686,3.2835770140643006
1000020012,2013,Marilyn Guest House,0,221001,Guest House,False,False,25.29422,83.00479,2.3144721368951964
1000020016,2011,Hotel Gautam Grand,3,221002,Hotel,True,False,25.32634,82.9892,1.6323139812032983
1000020404,2014,Hotel Surabhi International,3,221007,Hotel,True,False,25.357,83.008,5.223560316758462
1000020412,2014,Hotel Santoor,3,221010,Hotel,True,False,25.30919,82.98812,0.5766200074010788
1000020414,2016,Hotel Keshari Atithi Bhawan,0,221001,Guest House,False,False,25.31042,83.00674,1.4022565544080943
1000021210,2015,Royal Guest House,3,221010,Hotel,True,False,25.30291,82.97469,2.0942037416815786
1000026282,2015,Hotel RB INTERNATIONAL,0,221010,Hotel,True,False,25.29869,83.00178,1.7325711020597847
1000026666,2007,Pallavi International Hotel,3,221001,Hotel,True,False,25.32141,82.99797,1.1587822284699412
1000026722,2015,Hotel Rameshwaram,3,221005,Hotel,True,False,25.28206,83.00009,3.411787787598739
1000028264,2016,Hotel Shivganga,0,221010,Hotel,True,False,25.30828,82.99897,0.7395956023866337
1000029878,2015,The Westinn,3,221002,Hotel,True,False,25.33857,82.98065,3.1960917770832777
1000029916,2014,Surya Residency,0,221001,Hotel,False,False,25.31035,83.00532,1.2619879343658162
1000030308,2014,Hotel Shanti Inn Near Kedareshwar Temple,3,221001,Hotel,False,False,25.29639,83.0069,2.2383199595450773
1000031744,2016,HOTEL MRK,0,221001,Hotel,True,False,25.30707,83.00978,1.784158656981758
1000032264,2015,Hotel Parque Inn,3,221010,Hotel,True,False,25.29787,82.96999,2.791485526384068
1000035166,2011,"Hotel City Grand, Varanasi",3,221002,Hotel,False,False,25.3282,82.99,1.8196557994002842
1000035676,2014,Citi Residenci,3,221005,Hotel,True,False,25.29988,82.96924,2.7368974399903387
1000036428,2015,Hotel Rivera Palace,3,221010,Hotel,True,False,25.29211,83.00592,2.5741731671921912
1000036644,2015,LEELA GUEST HOUSE,0,221001,Hotel,False,False,25.30204,83.0075,1.841291735986619
1000037426,2016,Aanvi palace hotel,0,221002,Hotel,False,False,25.32314,82.98643,1.3946630936013047
1000046200,2016,hotel Aparajita,0,221005,Guest House,False,False,25.27774,83.00697,4.068414180458935
1000047444,2017,Hotel Venktesh,0,221002,Guest House,False,False,25.32744,82.99133,1.7188617884984516
1000048258,2017,HOTEL J.J. RESIDENCY,0,221010,Hotel,True,False,25.29843,83.00454,1.9132342327665395
1000048478,2015,Costa River,3,221002,Hotel,True,False,25.33859,82.97963,3.23901521913825
1000051498,2016,Hotel Sarweshwary,4,221001,Hotel,True,False,25.27885,83.00498,3.885849213558059
1000052744,2013,Suraj Guest House ,0,221001,Guest House,False,False,25.31072,83.01232,1.9570028919803764
1000053420,2014,Hotel Cresent,3,221005,Hotel,True,False,25.30163,82.99626,1.206449445114203
1000053430,2014,Shree Ganesha Palace Near Kashi Vishwanath Temple,3,221001,Hotel,True,False,25.3103,83.00479,1.2102185849989047
1000053726,2021,Hotel De Paris,0,221001,Hotel,False,False,25.33464,82.97821,2.9142545956464487
1000053772,2012,Hotel Lara India,3,221001,Hotel,True,False,25.3091,83.0074,1.4932944064689089
1000056968,2014,Pavitri Guest House,0,221010,Guest House,False,False,25.30805,82.99628,0.5590956475628577
1000057832,2017,Hotel Kaushik,0,221113,Hotel,False,False,25.25884,82.91328,9.95473307137384
1000057856,2014,Golden Lodge,0,221001,Guest House,True,False,25.31039,83.01017,1.7450733025354257
1000059848,2017,Hotel Sita,3,221001,Hotel,True,False,25.30457,83.00898,1.817128449693838
1000063522,2014,Old City PG Hostel,0,221001,Guest House,False,False,25.2935,83.0064,2.4685011077671204
1000064470,2015,HOTEL ARYA,3,221001,Hotel,True,False,25.29918,83.00457,1.8498413803151545
1000064588,2013,Hotel Sahu Near Kashi Vishwanath Temple Gate,3,221001,Hotel,False,False,25.30879,83.00897,1.6548315960288895
1000065790,2016,Hotel Awadh,0,221001,Hotel,False,False,25.32581,82.98951,1.5679154103550066
1000066770,2014,Shri Guest House,0,221001,Guest House,False,False,25.30703,83.01042,1.846765368388577
1000066970,2015,Jade Inn,3,221002,Hotel,True,False,25.34261,82.97543,3.8254774138750958
1000067414,2017,Hotel HM International,0,221001,Hotel,False,False,25.3108,83.00538,1.2614701235711163
1000068318,2015,Hotel Landmark,3,221010,Hotel,True,False,25.3046,82.9803,1.5138592892043368
1000070066,2007,"Taj Ganges, Varanasi",5,221002,Hotel,True,False,25.3361,82.98418,2.8146433688358123
1000072072,2016, Hotel Aakash Ganga,0,221001,Hotel,True,False,25.2953,83.00513,2.231119421224486
1000077672,2017,Hotel Prakash Palace,2,221005,Hotel,False,False,25.28427,83.00354,3.2684943165934395
1000085380,2017,Narendra Guest House,0,221005,Guest House,False,False,25.27675,83.00909,4.248779101299558
1000086270,2017,Arvi Residency Guest House,0,221109,Guest House,False,False,25.28344,82.97862,3.490247652651532
1000086280,2017,RAJ SHANTI GUEST HOUSE,0,221007,Guest House,True,False,25.36467,83.01895,6.410011013123297
1000086286,2014,Maa Vaishno Guest House,0,221010,Guest House,True,False,25.29686,83.00438,2.045065753200207
1000086510,2015,"BrijRama Palace, Varanasi | By the Ganges",5,221001,Hotel,True,False,25.30523,83.00909,1.7947528682938645
1000090062,2016,Hotel Ozas Grand - INFRONT OF BHU TRAUMA CENTER,3,221005,Hotel,True,False,25.27711,83.00678,4.127680381212207
1000094340,2016,Ganga Paying Guest House,0,221005,Guest House,True,False,25.28668,83.00664,3.1405089007661804
1000101530,2016,Hotel Madin,5,221002,Hotel,True,False,25.33774,82.9793,3.1673151025604938
1000102768,2016,Hotel Ganges Grand,3,221001,Hotel,True,False,25.30932,83.00677,1.4261748334329707
1000102918,2016,Hotel Picasso,2,221001,Hotel,True,False,25.29367,83.00479,2.367065386988079
1000104504,2016,De Bougainvilla,3,221005,Hotel,True,False,25.29108,83.00063,2.4573844731065706
1000104931,2016,Hotel Silk City,3,221002,Hotel,True,False,25.33738,82.97714,3.231982529630951
1000105420,2019,Hotel Siddharth,3,221010,Hotel,False,False,25.31047,82.9897,0.36698576763704277
1000107552,2017,RLJ Guest House,0,221005,Guest House,True,False,25.28946,83.00423,2.7575569917189537
1000108919,2016,HOTEL SLE RESIDENCY,3,221010,Hotel,True,False,25.30783,82.9911,0.5029269593968535
1000109379,2017,Kashi Annapurna Paying Guest House,0,221001,Guest House,False,False,25.31016,83.01073,1.8038580456412392
1000110011,2016,Dwivedi Hotels (Sri Omkar Palace),3,221001,Hotel,True,False,25.30432,83.00844,1.7822733006039602
1000110868,2017,Purple Lotus Homestay,0,221005,Homestay,True,False,25.28878,83.0037,2.8055671029587583
1000112161,2017,Hotel RAHIL PALACE,3,221010,Hotel,True,False,25.30753,82.9921,0.5088529722501985
1000112385,2017,HOTEL ADITYA,0,221001,Hotel,True,False,25.30735,83.0044,1.2679271744410328
1000112420,2017,Modern Vision Guest House,0,221001,Guest House,False,False,25.30399,83.00787,1.7507884280827946
1000112524,2017,Tridev Hotel,3,221001,Hotel,True,False,25.31958,83.01584,2.452611775578893
1000112527,2017,SHIVRATRI GUEST HOUSE,0,221001,Hotel,True,False,25.30824,83.00971,1.7413446903631433
1000112715,2015,Sagar Guest House,0,221001,Guest House,True,False,25.3097,83.00178,0.9293679431963078
1000112723,2015,Tara Guest House,0,221001,Guest House,True,False,25.30232,83.00634,1.7301746956538888
1000114340,2014,Shanti Guest House,0,221001,Guest House,True,False,25.31167,83.01337,2.057392621224533
1000114889,2017,Vishwanath Paying Guest House,0,221001,Guest House,False,False,25.31075,83.01104,1.828463268301829
1000115209,2017,Lime Villa on Gangaghat | Bed & Breakfast,0,221005,Homestay,False,False,25.25811,83.02164,6.657100367128227
1000115349,2017,Baba Guest House,0,221001,Guest House,False,False,25.30523,83.0097,1.8505139400278332
1000115544,2015,HOTEL NEEL GAGAN  HOTEL TOURIST,0,221002,Hotel,False,False,25.32632,82.98878,1.6403122250347235
1000119199,2017,HOTEL SGT PLAZA,3,221007,Hotel,True,False,25.37138,83.02554,7.36758185098897
1000119325,2017,The India Benares ,4,221002,Hotel,True,False,25.33213,82.98508,2.367558908324933
1000122482,2017,Hotel Blue Star,0,221002,Hotel,False,False,25.32489,82.98879,1.4867355918142473
1000122484,2017,Vipassana Guest House,0,221007,Guest House,True,False,25.36403,83.01919,6.355105246266793
1000123415,2017,Vinayak Heritage,3,221010,Hotel,False,False,25.30901,83.00176,0.9518889752000148
1000124299,2017,Tree of Life Resorts & Spa,5,221005,Resort,True,False,25.40209,82.88362,14.860514267157674
1000132500,2007,Radisson Hotel Varanasi,5,221002,Hotel,True,False,25.33849,82.98077,3.18324419976782
1000132530,2017,Hotel Aadesh Palace,0,221001,Hotel,True,False,25.31083,83.00832,1.5552512227630848
1000132628,2017,HOTEL GOKUL GRAND,0,221001,Hotel,True,False,25.30003,83.00455,1.7764163244576991
1000136605,2011,Clarks Varanasi,5,221002,Hotel,True,False,25.33653,82.97791,3.1117355873617454
1000137026,2013,Dwivedi Hotels (Elena Hotel) ,0,221001,Hotel,True,False,25.30507,83.00925,1.8168710767015226
1000137274,2014,Rahul Guest House,0,221005,Guest House,True,False,25.28185,83.00963,3.755208345088014
1000139617,2016,Hotel Kashi Inn,0,221001,Hotel,False,False,25.32678,82.98887,1.6876511652443227
1000142426,2017,goSTOPS Lite Varanasi,3,221010,Hostel,True,False,25.29943,82.99966,1.5586413012358913
1000142643,2017,Hotel Ashiyana,0,221002,Hotel,False,False,25.32578,82.98934,1.5684769327802242
1000142686,2017,J.P Guest House,0,221002,Guest House,False,False,25.32732,82.9904,1.7167860472596195
1000144013,2017,Stay Inn's Heritage | Near Dashashwamedh Ghat,0,221001,Homestay,True,False,25.30404,83.008,1.7592073326163686
1000146407,2015,Satsang Lodge,2,221002,Guest House,False,False,25.32511,82.98828,1.5250892466333754
1000147339,2018,Pushpanjali Home Stay | Wi-Fi & Parking,3,221002,Homestay,True,False,25.3501,82.96622,5.009680887160068
1000148585,2017,Travelling Troopers Homestay,3,221010,Homestay,True,False,25.31823,82.98928,0.7781120557251734
1000148620,2017,Hotel Bleue Mont,2,221002,Hotel,False,False,25.32583,82.99123,1.5417553313034214
1000157935,2017,Srishti Shelter,0,221007,Guest House,False,False,25.38446,83.02981,8.864809579322696
1000158117,2017,Hotel Meadows ,3,221002,Hotel,True,False,25.33826,82.97977,3.19978414107046
1000158261,2017,Guleria Kothi @ Ganges (A Boutique Heritage Hotel),4,221001,Hotel,True,False,25.31227,83.01509,2.2299888655132913
1000160043,2017,Hotel Varanasi Inn,3,221001,Hotel,True,False,25.31731,82.99219,0.589553731663143
1000160396,2019,walkin shiva paying guest house,0,221005,Guest House,False,False,25.28846,83.0039,2.8461611045367494
1000160920,2017,Sai Homestay | Rooms & Caretaker,0,221010,Homestay,True,False,25.30841,82.98287,1.086964086234168
1000160977,2017,Hotel Saffron,3,221001,Hotel,True,False,25.30914,83.00412,1.1726259578705767
1000165139,2018,Hotel Royal Country Club,0,221105,Hotel,False,False,25.41424,82.88238,15.88877575122233
1000165534,2018,Hotel R K Grand,3,221010,Hotel,True,False,25.31294,82.98874,0.43042134711726693
1000165664,2018,Utsav Residency,0,221005,Hotel,True,False,25.28007,83.00267,3.6887474463795837
1000166219,2018,Liberty Guest House,3,221001,Guest House,False,False,25.30644,83.00938,1.769438026578635
1000168739,2018,Stay Banaras | A Boutique Stay,3,221010,Hotel,True,False,25.31532,82.98507,0.8677024990457093
1000169011,2018,Hotel Yash Residency,3,221005,Hotel,True,False,25.28475,82.9941,3.037740641169541
1000169112,2018,Hotel Bagla Atithi Banaras,0,221001,Guest House,True,False,25.31045,83.00754,1.4816323821701693
1000169350,2018,International Travellers' Hostel by ITH Stays,3,221002,Hostel,True,False,25.32224,82.98666,1.295635295637765
1000171042,2018,Comfort Inn Benares,4,221002,Hotel,True,False,25.33877,82.97818,3.3196307513198704
1000171999,2018,Safarnama Varanasi | A Boutique B&B,3,221001,BnB,False,False,25.30738,83.00692,1.5012167674090175
1000172454,2018,Hotel O Us Residency,3,221005,Hotel,True,False,25.28338,82.97435,3.6934635162150333
1000173381,2011,"Taj Nadesar Palace, Varanasi",5,221002,Hotel,False,False,25.33642,82.98837,2.7481631948853558
1000175224,2018,Hotel O Haveli Inn,3,221002,Hotel,False,False,25.3283,82.99213,1.8088535191394537
1000176261,2018,Hotel Sai Palace,0,221010,Hotel,True,False,25.30318,82.97382,2.1572010201279723
1000177433,2018,Hotel Yelchiko,0,221002,Hotel,True,False,25.33335,82.98527,2.4899619969708167
1000177986,2018,Bliss Guest House | Rooms & Restaurant,0,221005,BnB,True,False,25.28506,83.00652,3.298233875647392
1000179562,2018,The Shivay Guest House,0,221010,Guest House,False,False,25.30838,83.00203,1.0036798325489664
1000181030,2018,Costa Riviera Hotel,4,221002,Hotel,True,False,25.32331,82.99548,1.2787385141867729
1000181445,2018,Hotel New Star Palace,0,221002,Hotel,True,False,25.32754,82.98961,1.7542395382389926
1000183019,2018,Brown Bread Bakery Guest House,0,221001,Guest House,True,False,25.30328,83.00729,1.7438414461007254
1000185084,2018,Hotel Uday Palace,3,221005,Hotel,True,False,25.28343,82.97195,3.8163700227695356
1000190629,2018,Holy Home Stay,0,221002,Guest House,True,False,25.33279,82.9856,2.4205326981409416
1000191012,2018,Palette Heritage Scindia Ghat,4,221001,Hotel,False,False,25.31236,83.01512,2.233136608757806
1000194414,2018,Shri Maa Ambey Paying Guest House,0,221001,Guest House,False,False,25.31039,83.00596,1.3250055626834683
1000194474,2018,vijaigarh kothi,3,221005,Hotel,True,False,25.28926,83.00252,2.7119212301907023
1000198962,2018,Hotel Ud Assi Inn Near Assi Ghat,0,221010,Hotel,False,False,25.29236,83.00486,2.497285000643044
1000199129,2018,Hotel K V Palace,3,221001,Hotel,True,False,25.30619,83.01028,1.863911091187965
1000200050,2018,EastSons Guest House,0,221001,Guest House,False,False,25.29293,83.00659,2.532023202678679
1000200530,2018,SURAJ GUEST HOUSE Varanasi,0,221002,Guest House,False,False,25.32727,82.99046,1.7104091868539304
1000201815,2018,Riverside Paying Guest house,0,221001,Guest House,False,False,25.30724,83.00683,1.4982157192141352
1000203243,2018,Wander Station | Rooms & Dorms,3,221001,Hostel,False,False,25.30511,83.00862,1.7578582179246744
1000203994,2018,Hotel Samman,3,221001,Hotel,True,False,25.30901,83.00725,1.4808388813144644
1000204751,2018,Hotel Vikram Palace,3,221003,Hotel,True,False,25.34973,82.96639,4.965792530885516
1000204962,2018,Hotel Varanasi Heritage,3,221001,Hotel,True,False,25.2903,83.0064,2.772700776098704
1000205442,2018,Kiran Ganga,0,221005,Guest House,True,False,25.27474,83.01264,4.598401410669893
1000207473,2018,Hotel O Shree Shree Guest House,3,220101,Hotel,True,False,25.28203,83.00234,3.4699302127411205
1000207655,2018,Moustache Hostel Varanasi | Rooms & Dorms,0,221005,Hostel,False,False,25.2869,83.00523,3.058444205509485
1000208021,2018,HOTEL BACHCHAN PALACE,2,221001,Hotel,True,False,25.3059,83.00886,1.7432808314555817
1000216299,2018,Villa Benares - A Lavish Standalone Villa,0,221003,Villa,True,False,25.36217,82.95846,6.560981437285395
1000219127,2018,Hotel Midcity,3,221010,Hotel,True,False,25.30848,82.99957,0.7784720754432409
1000219325,2018,South Villa Paying Gust House,0,221001,Guest House,False,False,25.29704,83.00606,2.1291260806373837
1000219785,2018,Vandana Residency,0,221005,Guest House,True,False,25.28918,83.00311,2.7418671446490706
1000219958,2018,New Ashiyana Palace,0,221002,Guest House,False,False,25.32679,82.99112,1.649071449421226
1000219998,2018,Hotel De Villa Inn,3,221002,Hotel,True,False,25.32657,82.9977,1.6851428083113547
1000221454,2019,Hotel Shweta Residency,0,221002,Hotel,True,False,25.32665,82.98838,1.686240751859531
1000222747,2018,Hotel Abhinav International,3,221002,Hotel,False,False,25.32082,82.98683,1.1508879613827405
1000222748,2018,Hotel Shivoy Grand,3,221001,Hotel,False,False,25.29766,83.00409,1.9553373675846693
1000224406,2018,Super Hotel O Hyderabad Gate IIT BHU,3,244001,Hotel,True,False,25.26191,82.98174,5.686983668401149
1000225107,2019,Om shanthi guest house,0,221005,Guest House,False,False,25.28827,83.00421,2.8778047252719383
1000225288,2019,B My Guest | Bed & Breakfast,0,221002,Homestay,True,False,25.33974,82.96686,4.041669623893074
1000225499,2019,Mahamaya PG,0,221007,Guest House,False,False,25.38306,83.02949,8.710043498536084
1000226647,2019,GenX Mirzapur,3,231001,Hotel,False,False,25.1337,82.56444,47.44431910328116
1000229049,2019,SQUARE INN,3,221002,Hotel,True,False,25.33839,82.97824,3.279149137167423
1000235131,2019,Hotel Vagmi,3,221002,Hotel,True,False,25.35121,82.963,5.2912425936479375
1000235900,2019,Ritz Mansion | A Boutique Stay,0,221010,Villa,False,False,25.30591,82.98827,0.8264536347798499
1000237232,2019,Le Lotus Grand,3,221005,Hotel,False,False,25.29087,82.97026,3.2754233627200007
1000238649,2019,Hotel Tamilnadu,0,221001,Guest House,False,False,25.29906,83.00491,1.8819112846228274
1000239398,2019,HOTEL SONA PLAZA,0,221002,Hotel,False,False,25.35267,82.97111,5.020160184995666
1000241022,2019,Backpackers Park | Rooms & Dorms,0,212011,Hostel,False,False,25.30056,83.00631,1.856628580301413
1000244226,2019,New Hotel Yatri Niwas ,0,221002,Hotel,False,False,25.32609,82.98829,1.6289222235573801
1000244479,2019,Hotel Runway Inn,3,221006,Hotel,False,False,25.44451,82.85535,20.197202299047287
1000244584,2019,Hotel Century Plaza  - The Boutique Hotel,0,221005,Hotel,False,False,25.29211,83.00592,2.5741731671921912
1000249055,2019,Super Collection O Jagannath Mandir Road Formerly Paradise Residency,3,221005,Hotel,False,False,25.28486,83.00522,3.2667545492167447
1000249382,2019,Hotel Castillo,4,221010,Hotel,False,False,25.31198,82.98843,0.45005636780977426
1000250124,2019,Ganga Darshnam Guest House,0,220001,Hotel,False,False,25.30644,83.00924,1.7562747892125161
1000250737,2019,Kashi Stay,0,221010,Hotel,False,False,25.31147,82.98587,0.7102359459620995
1000250840,2019,Hotel Ashoka Ganges,0,221001,Hotel,False,False,25.31034,83.00555,1.2850159722878058
1000251638,2019,Shivam Hotel,2,221001,Hotel,False,False,25.32613,82.99023,1.5888199885090386
1000255231,2019,Krisarnit (KSN) Paying Guest House,0,221002,Homestay,False,False,25.31534,82.98456,0.9153815086841809
1000255763,2019,Shiv Ganga Guest House,2,221005,Hotel,False,False,25.28343,82.97858,3.4929173570088876
1000257019,2019,Hotel R D Palace,0,221010,Hotel,False,False,25.3016,82.98846,1.2447640959466437
1000260094,2019,Shiv Rudraksh Resort - Near Assi Ghat,3,221005,Hotel,False,False,25.27368,83.01409,4.768312696588375
1000261925,2019,Collection O Swarna Banquet Bhu Rd,3,221011,Hotel,False,False,25.2575,82.98039,6.1946085608613375
1000263246,2019,Hotel Chandra Inn,0,221103,Hotel,False,False,25.30026,82.96934,2.7074538787843734
1000265323,2019,Hotel Golden Crown,3,221010,Hotel,False,False,25.3134,83.00388,1.1132269263798904
1000265383,2019,Sugar Stars Inn,3,221010,Hotel,False,False,25.30336,82.9758,1.9723832254250142
1000267785,2019,Hotel Radiance Courtyard,3,221108,Hotel,False,False,25.30051,82.95402,4.114197126641544
1000268585,2019,Mayur Paying Guest House,0,221007,Guest House,False,False,25.38284,83.02092,8.3599543152315
1000269327,2019,Rose Heritage Home | A Heritage Stay,2,221001,Hotel,False,False,25.29532,83.00468,2.204652125825784
1000271310,2019,Hotel The Pinnacle Inn,4,221007,Hotel,False,False,25.36843,83.02544,7.0707181989124175
1000271481,2019,HOTEL AUGUSTO,0,221001,Hotel,False,False,25.30833,83.00653,1.4304651799888568
1000276003,2019,Hotel Mastana Palace,0,221001,Hotel,False,False,25.31739,82.99918,0.8663140675738709
1000285141,2019,The Fern Residency Sarnath,4,221007,Hotel,False,False,25.36313,83.0259,6.5770599015360744
1000288876,2019,HOTEL JANKI INN,3,221010,Hotel,False,False,25.31376,82.9906,0.30001828557518606
1000290280,2019,Hotel Rudrakash,0,221002,Hotel,False,False,25.32625,82.99102,1.5905638498674213
1000290554,2020,Hotel Four Seasons,3,221001,Hotel,False,False,25.31109,83.00609,1.329456952834822
1000292286,2019,Hotel Panchsheel @5mins From Railway Station,2,221002,Hotel,False,False,25.32168,82.98729,1.2107418785813935
1000293107,2019,Ganga darshan,0,221001,Guest House,False,False,25.30662,83.00963,1.7861148441081214
1000299056,2020,HOTEL CHANDRA MALTI PALACE,0,221106,Hotel,False,False,25.24795,82.95434,8.113925050189843
1000299585,2020,Hotel Prabhat,0,221002,Hotel,False,False,25.32637,82.98907,1.6385878642754732
1000299860,2020,Rahi Tourist Bungalow Sarnath,3,221007,Hotel,False,False,25.37868,83.02784,8.198747269048365
1000300120,2020,Nawab Ki Deohri | Boutique Heritage Homestay,3,221001,Homestay,False,False,25.32166,83.00948,1.9792781741535597
1000300708,2020,Varanasi Paradise,0,221001,Hotel,False,False,25.33235,82.96897,3.299195450021147
1000301537,2020,Live Free Hostel | Rooms & Dorms,3,221005,Hostel,False,False,25.28472,83.00708,3.3561806058951724
1000302039,2020,"Hotel SJR, Varanasi",0,221001,Hotel,False,False,25.31253,82.98221,1.0765580699957702
1000306426,2020,Alakhnanda Guest House,0,221001,Homestay,False,False,25.30871,83.01148,1.9035366109503353
1000309814,2020,Celebrant Hotel,3,221010,Hotel,False,False,25.30625,82.98852,0.7810604029636051
1000319908,2020,Family Guest House (200 mtrs from Dashashwamedh Ghat),0,221001,Homestay,False,False,25.30529,83.00806,1.6985047148126413
1000320374,2020,Starlit Select Nirvana Varanasi,3,221002,Hotel,False,False,25.33884,82.98113,3.2056897372329254
1000323622,2020,Collection O Kewal Palace Hyderabad Gate,3,221011,Hotel,False,False,25.26235,82.98157,5.642456372756993
1000323773,2020,Mad Squad Hostel | Dorms & Rooms,0,221001,Hostel,False,False,25.31295,83.00311,1.0305229761411128
1000324321,2020,Saraswati Palace,0,221005,Guest House,False,False,25.28305,82.97445,3.720156243715562
1000324335,2020,Hotel O Divine Paradise,3,221005,Hotel,False,False,25.26136,82.96619,6.243568224273461
1000324478,2020,Super Townhouse Hyderabad Gate IIT BHU Formerly RK Heights,3,221011,Hotel,False,False,25.26077,82.97991,5.849637792944339
1000324615,2020,Om Vilas Benares (Varanasi),5,221003,Hotel,False,False,25.38303,82.96463,8.388777307047972
1000326637,2020,Benaras Gharana Inn,0,221002,Hotel,False,False,25.32627,82.9978,1.6561616531776022
1000328281,2020,Hotel Luxmi Palace,0,221001,Hotel,False,False,25.30729,83.00932,1.7326325529564504
1000328331,2020,Hotel Four Element,3,221108,Hotel,False,False,25.29645,82.97002,2.881205589019243
1000328498,2020,Hotel Vrindavan Palace,3,221103,Hotel,False,False,25.30034,82.96844,2.782787664302382
1000328748,2020,Pristine Hotel,4,221002,Hotel,False,False,25.33806,82.9788,3.2212471054909346
1000328868,2021,Shri Heritage | Open Terrace with Beautiful View,0,221001,Apartment,False,True,25.29075,83.00421,2.6267016514739874
1000330384,2021,Hotel Kashi,0,221001,Hotel,False,False,25.31091,83.0071,1.4323088132969386
1000330716,2021,Hotel K B Palace,0,221010,Hotel,False,False,25.29359,82.97209,2.9311290947330204
1000330985,2021,Vibe N Joy | Stay @Dashashwamedh Ghat,0,221001,BnB,False,False,25.30611,83.00957,1.8004568963355807
1000331244,2021,Hotel Aps Palace,0,221103,Hotel,False,False,25.31404,82.96771,2.5424039605526754
1000331700,2021,Hotel City Palace,0,211002,Hotel,False,False,25.32473,82.98949,1.4514168637122005
1000331771,2021,Hotel Satya Inn,3,221001,Hotel,False,False,25.32255,83.01676,2.6668932943244346
1000332099,2021,Tattva | Entire 3BHK Apartment,0,221003,Apartment,False,True,25.35214,82.96049,5.521647987230562
1000332259,2021,Ganga Guest House,0,221101,Guest House,False,False,25.30315,83.00724,1.7478189611676824
1000332493,2021,Yogi Soul Guesthouse @Dashashwamedh Ghat,0,221001,Homestay,False,False,25.30784,83.00935,1.7178458964425263
1000333547,2021,Hotel Ganga Garden,0,221005,Hotel,False,False,25.28496,83.00805,3.3748877251195295
1000333660,2021,Homestay-Heritage Rooms with Scenic Garden,3,221010,Homestay,False,False,25.31081,82.9945,0.21117213181788946
1000333668,2021,"Hotel Yathart Inn , Varanasi",3,221001,Hotel,False,False,25.31222,82.99516,0.2273106036380031
1000333810,2021,3BHK Apartment with Kitchen,3,221001,Apartment,False,True,25.31089,82.99461,0.2142154739951839
1000336597,2021,VARA | Entire 3BHK Apartment,0,221103,Apartment,False,True,25.30058,82.96948,2.678021148664694
1000336682,2021,The Kashi Residency,0,221005,Hotel,False,False,25.28677,83.00615,3.110120084782973
1000338189,2021,Tattva | Modern 3BHK Apartment,0,221005,Apartment,False,True,25.35216,82.96038,5.529971610604177
1000341572,2021,Hotel Sahara,3,221005,Hotel,False,False,25.43639,82.85312,19.70786312030447
1000343447,2021,HOTEL STAY INN,0,221007,Hotel,False,False,25.37911,83.0205,7.955849126452136
1000347349,2021,The Pulick Stay,0,221002,Guest House,False,False,25.33293,82.9856,2.4353706273654305
1000350480,2021,Janaki Villa | Entire 2BHK Luxury Bungalow,3,221010,Villa,False,True,25.30215,82.99135,1.1116480758927798
1000351244,2021,Hotel Royal Livin,3,221010,Hotel,False,False,25.29375,82.99936,2.13553712701024
1000351760,2021,RATNAKAR BHAWAN (HERITAGE HOMESTAY),3,221001,Homestay,False,False,25.29634,83.005,2.1280494564429366
1000352023,2021,Zion Inn,3,221002,Hotel,False,False,25.33715,82.97783,3.1760509278718687
1000355915,2021,FabHotel Lemon Grass,3,221005,Hotel,False,False,25.28198,83.00388,3.5206783293216493
1000356271,2021,SimpleNsmart Living | Entire 2 BHK Apartment,0,221005,Apartment,False,True,25.28776,82.9793,3.0273281603883584
1000356398,2021,HOTEL SILSILA,0,221106,Hotel,False,False,25.29788,82.96868,2.900511903694725
1000356514,2021,BlueBells Varanasi,0,221001,Homestay,False,False,25.30246,82.99168,1.0732163051649801
1000356840,2021,Hotel O Sparrow Nest,3,211005,Hotel,False,False,25.2841,82.97258,3.7193020193700073
1000358209,2021,Cozy Inn Homestay | Rooms & Caretaker,0,221001,Homestay,False,False,25.30877,83.00312,1.0894260199288839
1000358605,2021,HOTEL NANDINI PALACE,0,221002,Hotel,False,False,25.32505,82.98977,1.4797617630314248
1000358932,2021,Hotel Veda by R K S,3,221001,Hotel,False,False,25.30887,83.00188,0.9687455329580325
1000360573,2021,Gandhi Ganga Guest House,0,221002,Guest House,False,False,25.32881,82.99223,1.8651181143217166
1000360720,2021,"Hotel Prago by Green Deer,Varanasi",3,221005,Hotel,False,False,25.27831,83.00299,3.886014345418854
1000362397,2021,HOTEL KESHARI PALACE,3,221005,Hotel,False,False,25.28316,82.99973,3.2845973159709465
1000366032,2021,THE ELEGANCE,3,221004,Hotel,False,False,25.2895,82.96975,3.42128653220868
1000366052,2021,SHRI NILAYAM KUTIR,3,221002,Hotel,False,False,25.33075,82.99586,2.100674686545097
1000366329,2021,BRICK FIELD | Lounge with Garden & Parking,3,221108,Villa,False,False,25.29723,82.94549,5.0433257535179665
1000367273,2021,Ramada by Wyndham Varanasi Katesar,5,221008,Hotel,False,False,25.29669,83.03648,4.701357923316562
1000367312,2021,HOTEL TRIDEV GRAND,3,221005,Hotel,False,False,25.28652,82.99972,2.920025059717176
1000368043,2021,MAGIC LEAFS,3,221002,Hotel,False,False,25.33282,82.98644,2.3994783208455672
1000368299,2021,HOTEL RIVER RHYTHM,3,221005,Hotel,False,False,25.28746,83.00539,3.008291330640329
1000370676,2021,Hotel RIO Benaras,3,221002,Hotel,False,False,25.33833,82.97747,3.308767048136863
1000371309,2021,KEDAR GANGA GUEST HOUSE,0,221001,Guest House,False,False,25.31103,83.00009,0.7308805600443752
1000371798,2021,Ishwari Guest House,0,221001,Guest House,False,False,25.328,83.0283,3.9751819114992806
1000372119,2021,Pretty Garden View 3BHK Apartment near Kashi Vishwanath,0,221010,Apartment,False,True,25.30012,82.99459,1.3370558070020715
1000372134,2021,Gypsy Diaries | Rooms & Dorms,0,221010,Hostel,False,False,25.31179,82.99898,0.6111594808098055
1000375271,2022,Hotel Jee,2,221002,Hotel,False,False,25.32775,82.99953,1.8686222919526805
1000375689,2022,Poshtel VNS | A Boutique Stay,3,221001,Homestay,False,False,25.33803,82.9786,3.2271587151734513
1000376060,2022,Hotel Satkar,0,221011,Hotel,False,False,25.24607,82.98287,7.405472495397558
1000376292,2022,Hotel Mahaveer International Varanasi,0,221001,Hotel,False,False,25.30971,83.00442,1.1861570558718875
1000376441,2022,Hotel Rudraksh Villa,0,221001,Guest House,False,False,25.30917,83.00684,1.4366746444072462
1000376540,2022,Hotel Buddha Theme park,0,221007,Resort,False,False,25.38353,83.02223,8.477091047803816
1000377263,2022,Heritage Homestay@Old City Near Holy Ganges,3,221001,Homestay,False,True,25.31957,83.02143,2.9865778167117645
1000378626,2022,Lotus Paying Guest House,0,221001,Guest House,False,False,25.30593,83.00914,1.7679206997127954
1000378974,2022,Townhouse OAK Hotel Aditya Residency,3,221010,Hotel,False,False,25.30573,82.9792,1.5465784190383243
1000379305,2022,FabExpress Moti Mahal,3,221007,Hotel,False,False,25.37194,83.01975,7.185324135400623
1000380259,2022,Hotel M. K. International,0,221001,Hotel,False,False,25.31659,83.01282,2.0643772947199754
1000380693,2022,Hotel Sri Balaji,0,221001,Hotel,False,False,25.31718,83.01554,2.345523615543947
1000382860,2022,Om Sai Bhawan Guset House,0,221002,Guest House,False,False,25.35172,82.97128,4.917757096651237
1000382940,2022,Hotel Rajkamal Near Varanasi Railways Station.,3,221002,Hotel,False,False,25.32636,82.98962,1.625376232138189
1000383021,2022,Aadrika Residency & Tandoor N Curry,0,221002,Hotel,False,False,25.36131,82.95491,6.677367971519309
1000384396,2022,UPRE | Entire 3BR Apartment,0,221003,Apartment,False,True,25.35177,82.95731,5.684023886853079
1000385371,2022,FabHotel Super 3 Premium,3,221010,Hotel,False,False,25.30565,82.9792,1.550639714721735
1000385915,2022,Sky Inn Paying Guest House,0,221005,Guest House,False,False,25.2843,83.00487,3.311524373589374
1000386718,2022,FabHotel Lily Grand,3,221005,Hotel,False,False,25.26549,82.98093,5.315174533537534
1000391153,2022,HOTEL PRIME LAND,0,221008,Hotel,False,False,25.29725,82.94438,5.148203736655312
1000392338,2022,"Gold Coin Hotel, Varanasi",0,221005,Hotel,False,False,25.31053,83.00922,1.6484769662098249
1000393097,2022,The Cozy Cottage Varanasi,0,221005,Homestay,False,False,25.28685,83.00521,3.0627158372336027
1000394025,2022,Green Villa Kashi @Assi Ghat,0,221011,Villa,False,False,25.25498,83.02233,7.001342508441304
1000397119,2022,Hotel M K Grand Near Kashi Vishwanath Temple,3,221001,Hotel,False,False,25.30854,83.00659,1.4296927819723453
1000397543,2022,Hotel LumbiniInternational Varanasi,0,221007,Hotel,False,False,25.37163,83.0231,7.287018641216667
1000397929,2022,Hotel Mintella,3,232101,Hotel,False,False,25.33318,82.98657,2.434584874724159
1000399247,2022,HOTEL ANANYA INN,2,221001,Hotel,False,False,25.2935,83.00489,2.38845857401324
1000399269,2022,Treebo Little Budhha,3,221007,Hotel,False,False,25.37764,83.0201,7.788661810012376
1000399614,2022,Hotel Kiaara,3,221003,Hotel,False,False,25.35894,82.96317,6.00990995059772
1000399672,2022,Hotel Hardik Palacio,3,221001,Hotel,False,False,25.30927,83.00141,0.9088527925934045
1000400382,2022,Rudraksha Guest House,0,221010,Guest House,False,False,25.31055,82.9994,0.6736206210546563
1000402251,2022,Hotel Nivedita,0,221006,Hotel,False,False,25.2846,83.00443,3.264508026823673
1000404242,2022,The Triumph Hotel,0,221001,Hotel,False,False,25.29915,82.97076,2.6482429943531853
1000404763,2022,FabHotel Premium Kashi,3,221007,Hotel,False,False,25.35721,83.01134,5.352624727665299
1000405071,2022,Hotel sooryoday,0,221001,Hotel,False,False,25.3084,83.00313,1.1048076730042131
1000406681,2022,Four Leaf Hotel - Sapphire Blue,4,221002,Hotel,False,False,25.31765,82.97391,2.0085347137582437
1000407585,2022,HOTEL XENIA,0,221010,Hotel,False,False,25.30482,82.9751,1.9621184348208445
1000407823,2022,THE AWADH MAAN HOTEL RESTAURANT AND LAWN,0,221105,Hotel,False,False,25.38128,82.91817,10.754934179414644
1000408064,2022,Hotel MK Grand,0,221010,Hotel,False,False,25.30953,83.00328,1.0796597976316475
1000408399,2022,"SAROJA HERITAGE HOTEL, Varanasi",3,221001,Hotel,False,False,25.32243,83.00439,1.6324980447052662
1000409398,2022,Vagabond Stay Hostel | Rooms & Dorms,3,221010,Hostel,False,False,25.31131,82.9995,0.6678161688831045
1000409534,2022,Green Banaras,3,221011,Hotel,False,False,25.22051,82.92434,12.293979419370412
1000410255,2022,Heritage Divine Hotel,3,221005,Hotel,False,False,25.28533,82.97121,3.68560050259244
1000410328,2022,RHS | Beautiful Entire 3BHK Villa,0,221002,Villa,False,True,25.33858,82.97817,3.3011848814670004
1000410455,2022,DeCosta Palace,0,221002,Villa,False,False,25.3465,82.96989,4.475180853710634
1000410614,2022,Hotel O Surbhi G House,3,221010,Hotel,False,False,25.29104,82.99308,2.3360197947756607
1000410973,2022,Hotel Buddha Park,0,221007,Hotel,False,False,25.37567,83.00807,7.2367216300294785
1000413401,2022,highway inn,3,221311,Hotel,False,False,25.2586,82.9123,10.049909021325675
1000414442,2022,Gulab Kothi Varanasi by Royal Orchid Hotels Limited,4,221008,Hotel,False,False,25.2926,83.0351,4.761032476985977
1000415088,2022,Maa Durga Inn | Near Kashi Vishwanath Temple,0,221001,Homestay,False,False,25.30803,83.01066,1.839653062342531
1000416857,2022,JPM P. Guest House,0,221005,Homestay,False,False,25.28631,83.00624,3.1602502684179776
1000417192,2022,Saptapuri Varanasi by Royal Orchid Hotels Limited,4,221012,Hotel,False,False,25.32052,83.03953,4.780135487745112
1000417940,2023,KS PAYING GUEST HOUSE,1,221001,Guest House,False,False,25.30058,83.00711,1.9143059369113709
1000418070,2022,Priyanka Homestay | Entire 2 BHK Apartment,0,221106,Homestay,False,False,25.27022,82.9597,5.725175503690718
1000418751,2022,The Hotel Ambassador Inn,2,221005,Hotel,False,False,25.28091,83.0027,3.5996196720792124
1000419383,2022,Stay Inn Kailasha | Parking Terrace Kitchen,0,221001,Homestay,False,False,25.29369,82.99629,2.0694289072100243
1000420807,2022,Shanti Inn | Luxury AC Dormitory,0,221001,Hostel,False,False,25.30802,82.99721,0.6226584632182092
1000421354,2022,Cocasa Boutique Hotel,4,221005,Hotel,False,False,25.28318,83.00349,3.381680198990472
1000421506,2022,kashi nest,0,221007,Guest House,False,False,25.38369,83.02993,8.79221505171656
1000422176,2022,Narayana Haveli | Near Ghats,0,221001,Homestay,False,False,25.30399,83.00787,1.7507884280827946
1000422614,2022,Hotel O Mishra Suites,3,221002,Hotel,False,False,25.35274,82.99733,4.546558257859626
1000422741,2022,HOTEL DAKSHIT IN,1,221103,Hotel,False,False,25.24881,82.92776,9.609907577890482
1000422756,2022,Hotel Banaras Villa,0,221005,Hotel,False,False,25.27895,82.99882,3.72800627907913
1000423357,2022,Muhurt Residency,0,221005,Guest House,False,False,25.28351,83.00168,3.2935456899182416
1000423884,2022,Tattva | Entire Homelee 3BHK Apartment,0,221003,Apartment,False,True,25.35168,82.95954,5.537728870339503
1000425723,2022,KASHI KUTIR,1,221001,Guest House,False,False,25.31043,83.00438,1.167243358948779
1000425838,2022,Townhouse Navneeta Grand,3,221002,Hotel,False,False,25.26038,82.98017,5.886174222539351
1000427600,2022,Pearl Courtyard Hostel | AC Dorms,0,221010,Hostel,False,False,25.30944,83.00494,1.2438656774816486
1000428106,2022,Sparrow's Stay,0,221005,Homestay,False,False,25.288,83.00436,2.9113431850456393
1000430611,2022,Hotel Kashi Pride,0,221001,Hotel,False,False,25.3525,83.00108,4.572475875461071
1000431230,2022,Kutumb Homestay | Entire 2BHK Apartment,0,221010,Apartment,False,True,25.28846,83.00655,2.9598026972044456
1000432356,2022,Kashi Gateway | Entire 2BHK Apartment,0,221010,Apartment,False,True,25.29855,82.9732,2.485369157200437
1000433802,2022,Hotel Dharohar,3,221006,Hotel,False,False,25.43687,82.85246,19.792541957516026
1000435514,2022,Kashi Ganga Home Stay,0,221010,Homestay,False,False,25.31719,83.00155,1.0400793778471813
1000435620,2022,Balaji | Entire 2 BHK Apartment,3,221010,Apartment,False,True,25.30328,82.98413,1.3148636799348357
1000436377,2022,Hotel The Royal Vista,3,221010,Hotel,False,False,25.3132,82.98449,0.8556822944939343
1000436682,2022,Janaki Villa | Modern 2BHK Luxury Apartment,0,221010,Apartment,False,True,25.30205,82.99233,1.1132090791901688
1000436711,2022,Arcadia Hotel,4,221002,Hotel,False,False,25.32412,82.99182,1.346809847660771
1000438902,2023,Hotel Bharat,3,221001,Hotel,False,False,25.30694,83.00204,1.0795703653186244
1000439526,2023,The Sevens Hotel - 200 M from Assi Ghat,3,221005,Hotel,False,False,25.28931,83.00375,2.753299248483689
1000439648,2023,Hotel Sarnath International,3,221007,Hotel,False,False,25.37786,83.03356,8.381105576964428
1000440497,2023,Ansh Paying Guest House VNS,0,221001,Homestay,False,False,25.3074,83.00731,1.5373130091138105
1000441496,2023,Hotel Imperial Kashi,2,221010,Hotel,False,False,25.29804,83.00389,1.9092212016651287
1000443441,2023,Hotel Kavana,3,221005,Hotel,False,False,25.28924,83.00277,2.7230497663832236
1000444581,2023,Hotel Kamesh Hut,0,221002,Hotel,False,False,25.32696,83.00011,1.8093466615883407
1000446343,2023,RAJ HOTEL,3,221003,Hotel,False,False,25.38661,82.97111,8.575385357228111
1000447025,2023,FabHotel Siddhi,3,221002,Hotel,False,False,25.31906,82.96639,2.7770735045166015
1000448165,2023,Ganga Fuji Homes And Hostel @Dashashwamedh Ghat,0,221001,Hostel,False,False,25.30891,83.00882,1.6372263612054618
1000448647,2023,The Sacred Stay,0,221109,Homestay,False,False,25.29223,82.97842,2.641371003073151
1000450359,2023,KAPOOR'S,0,221005,Villa,False,False,25.28327,82.99907,3.259374890292504
1000450387,2023,Vishwa Deva Home Stay,0,221010,Homestay,False,False,25.3087,82.99309,0.37270823583605495
1000451096,2023,Hotel Dolphin Grand,3,221001,Hotel,False,False,25.29977,83.00241,1.6662723500267855
1000451172,2023,HOTEL KALAWATI PALACE,3,221004,Hotel,False,False,25.28824,82.96969,3.52924225882577
1000452307,2023,Satnam Homestay,0,221010,Homestay,False,False,25.3097,82.99465,0.31441974254432015
1000452332,2023,Richa paying guest house,0,221001,Guest House,False,False,25.29287,83.005,2.4546628316052614
1000452972,2023,Treebo Azure,3,221002,Hotel,False,False,25.33842,82.9786,3.266038030271436
1000453304,2023,Janaki Villa | Beautiful 2 BHK Homely Stay,0,221010,Homestay,False,True,25.30366,82.99396,0.9386658170596245
1000453548,2023,Sharmaji apartment,0,221109,Apart-hotel,False,False,25.2932,82.97581,2.7103753116211897
1000453682,2023,The Olivia,3,221002,BnB,False,False,25.35158,82.9709,4.9208450471344305
1000455177,2023,Hotel Ganga Kaveri,3,221007,Hotel,False,False,25.36558,83.02283,6.669013503843622
1000455192,2023,Kashi dreams stay,0,221005,Villa,False,True,25.26777,82.97435,5.2650835246221686
1000455222,2023,Hotel Satsang Grand,3,221007,Hotel,False,False,25.35469,83.00427,4.877195017163099
1000456020,2023,Tranquil Apartment | Entire 2BHK Near Ghats and Temple,0,221103,Apartment,False,True,25.30228,82.97063,2.4888266750476764
1000457216,2023,Hotel O Baba Paying Guest House,2,221103,Hotel,False,False,25.29401,82.97549,2.662388512256878
1000458157,2023,Shanti | Entire 2BHK Apartment,0,221001,Apartment,False,True,25.28806,82.99726,2.7029795876649514
1000458512,2023,Hari Vilaas Enclave,3,221010,Hotel,False,False,25.31231,82.99443,0.155875086454323
1000458573,2023,Buddha | Entire 2BHK Apartment,0,221001,Apartment,False,True,25.28991,82.99155,2.4653803942097716
1000458594,2023,Anand | Entire 2BHK Apartment,0,221001,Apartment,False,True,25.29028,82.99148,2.4247083919392236
1000458603,2023,Prem | Entire 2BHK Apartment,0,221001,Apartment,False,True,25.29028,82.99148,2.4247083919392236
1000459707,2023,Cookies Stay | Rooms & Dorms,0,221001,Hostel,False,False,25.29438,83.005,2.31029041004826
1000459731,2023,Dil se banarasiya (Atithidevobhava),0,221001,Homestay,False,False,25.29679,82.97292,2.6296736712991833
1000460938,2023,River View Guest House,0,221005,BnB,False,False,25.27258,83.01418,4.882016913089158
1000461045,2023,Indra | Entire 2BHK Apartment,0,221106,Apartment,False,True,25.29235,82.97835,2.634151530002315
1000461114,2023,The White House,0,221001,BnB,False,False,25.3115,83.00546,1.2633240641589178
1000461575,2023,Kashi Dham Homestay,0,221010,Homestay,False,False,25.3161,83.00254,1.0680232664313698
1000461943,2023,Hotel Rudra Paradise,1,221103,Hotel,False,False,25.29686,82.96855,2.9744012923593144
1000462069,2023,Super Hotel O BLW Kakarmatta Near Banaras Junction,3,221106,Hotel,False,False,25.29064,82.97339,3.0847720856826397
1000462663,2023,Hotel Bhagwan Das,2,221001,Hotel,False,False,25.32286,83.02506,3.4482674618014357
1000462693,2023,Hotel Golden Petals,3,221001,Hotel,False,False,25.29717,83.00422,2.0075379305931302
1000465401,2023,Southern Grand @ Kashi Vishwanath Temple Corridor,3,221001,Hotel,False,False,25.31118,83.01138,1.8594388136587872
1000465451,2023,Rasna Homestay,0,221010,Homestay,False,False,25.30471,82.97927,1.5952421451202488
1000467104,2023,FabExpress GS Residency,3,221001,Hotel,False,False,25.30731,83.00939,1.7386590807122275
1000467851,2023,Hotel Temple View,3,221000,Hotel,False,False,25.3088,83.00732,1.4931669544858002
1000468656,2023,Garden Villa (Chotiwala),3,221010,Villa,False,False,25.29604,83.00063,1.941936727833065
1000469904,2023,Harsh guest House,0,221005,Homestay,False,False,25.27895,83.00407,3.84761472029121
1000470220,2023,The Ramaa Guest House,0,221010,Villa,False,False,25.30702,82.98288,1.1525640338555554
1000470847,2023,Hotel Rajyashree palace,3,221010,Hotel,False,False,25.29596,83.0003,1.9371253430906281
1000472221,2023,FabExpress Namaste Kashi,3,221001,Hotel,False,False,25.32754,83.00297,1.9976681261335416
1000472561,2023,Suvidha Guest House Varanasi,0,221005,Guest House,False,False,25.28261,82.98254,3.4352312272164287
1000472981,2023,Hotel Millenium,1,221010,Hotel,False,False,25.31347,83.00163,0.8910050807859584
1000474193,2023,ITH Vintage Homestay,3,221001,Homestay,False,False,25.32928,83.02136,3.44247848098292
1000475008,2023,"Itsy Hotels Kashi Grand, BHU",3,221005,Hotel,False,False,25.26175,82.98163,5.706612882662158
1000476142,2023,Hotel The Pearl,3,221105,Hotel,False,False,25.38651,82.90286,12.265138561324177
1000476509,2023,Garden home PG guest house,0,221001,Homestay,False,False,25.29799,83.00376,1.9062502484392019
1000476521,2023,Hotel Shiv Manglam,0,221001,Guest House,False,False,25.31728,83.00336,1.2010591951833962
1000476635,2023,Wanderlust Hostel & Home Stay,0,221002,Hostel,False,False,25.33823,82.98232,3.0996887435303924
1000476699,2023,Hotel Divyakashi,3,303908,Hotel,False,False,25.31003,83.0071,1.444249617692742
1000476706,2023,Surya Niwesh Home Stay,0,221010,Homestay,False,True,25.30023,82.97983,1.8586991883247113
1000477512,2023,HHW BUDDHA LINEAGE,3,221001,Hotel,False,False,25.36837,83.02368,6.98470994054136
1000477539,2023,JSR Ganga @Dashashwamedh Ghat,0,221001,BnB,False,False,25.3059,83.00964,1.8156685461260194
1000478183,2023,Villa Aanandam | A Luxe Stay,0,221010,Villa,False,True,25.31108,82.98644,0.6588761623568609
1000478225,2023,HOLY LAND,3,221010,BnB,False,False,25.29906,83.00491,1.8819112846228274
1000478228,2023,Hari Gopal Palace,3,221010,BnB,False,False,25.29906,83.00491,1.8819112846228274
1000478864,2023,FabExpress Prashansa Palace,3,221010,Hotel,False,False,25.29446,82.97366,2.7510195901696344
1000479034,2023,Hotel O Surya Inn,3,221006,Hotel,False,False,25.42698,82.867,17.981912656773517
1000479035,2023,Hotel O Kriti Green,3,221108,Hotel,False,False,25.25314,82.94942,7.87545753681471
1000479155,2023,The Jais,3,221005,Hotel,False,False,25.28752,83.00455,2.967922377957314
1000479375,2023,Aaditya Ashram Sewa Samiti Homestay,0,221010,Hostel,False,False,25.31339,82.99479,0.24106854930875868
1000479411,2023,Krimson Bricks | Entire 3BHK Villa with Garden,3,221011,Villa,False,True,25.25124,82.9773,6.941206177951314
1000479431,2023,Kashi Dream Stay | A Lure Home,3,221010,Apartment,False,False,25.31042,82.9962,0.3772937772864396
1000480103,2023,Mangos Homestay Unit 1,4,221010,BnB,False,True,25.29033,82.99145,2.419339071283256
1000480239,2023,Shri Ganga Guest House,0,221001,Guest House,False,False,25.32432,83.01126,2.294634537267525
1000480527,2023,Happy Homes | Entire 2BHK Apartment,0,221008,Homestay,False,True,25.29915,82.97405,2.3769698025207577
1000480965,2023,The Shiv Ganga Guest house,1,221107,Hotel,False,False,25.29399,82.97137,2.9528077881110635
1000481186,2023,Swagat Guest House,1,221001,Guest House,False,False,25.29342,83.00598,2.453061672032245
1000481311,2023,Hotel Utsav Grand,3,221010,Hotel,False,False,25.30774,82.99735,0.6549311417383927
1000481983,2023,SDS GRAND,2,221005,Hotel,False,False,25.28381,82.97364,3.6892437653160344
1000482133,2023,Joy Retreat | A Homlee Stay,0,221010,Homestay,False,False,25.30516,82.97497,1.958957147176007
1000483554,2023,DoubleTree By Hilton Varanasi,5,221001,Hotel,False,False,25.35151,82.99361,4.388571695235007
1000483817,2023,Hotel O Home Singhs Delight,2,221108,Hotel,False,False,25.25345,82.95783,7.408992692034153
1000484291,2023,Annapurna Palace Guest House,0,221001,Guest House,False,False,25.31998,83.0155,2.4362630603730713
1000484645,2023,Hotel The Legacy,1,221109,Hotel,False,False,25.28949,82.96831,3.5221752529350425
1000484989,2023,Gurudham | Entire 2BHK Apartment,3,221010,Homestay,False,True,25.29509,82.99597,1.910595505240215
1000485887,2023,Shivohm In Homestay | 400mts from Kashi Temple,0,221001,Homestay,False,False,25.30807,83.00832,1.6112603265996213
1000486314,2023,Mahi in,0,221002,Guest House,False,False,25.33308,82.98597,2.4403946343675718
1000486392,2023,Hotel VISHWANATH INN,0,221010,Hotel,False,False,25.30843,82.99928,0.7564786810894572
1000486752,2023,Vagabond Homestay,0,221010,Homestay,False,False,25.30866,82.9984,0.6684460172477966
1000487261,2023,Shree Anandam Kashi | Entire 2BR Apartment,0,221108,Homestay,False,True,25.30193,82.96845,2.703666247335723
1000487471,2023,The Kashi Rooms,0,221001,Guest House,False,False,25.31377,83.00382,1.1135830238068711
1000487679,2023,VINDHYAN BUDGET HOTEL,2,221005,Hotel,False,False,25.28769,82.99763,2.749765468024493
1000487708,2023,Kashi Homestay - Beautiful Entire 2BHK Apartment,0,221002,Homestay,False,True,25.34171,82.9958,3.311086685090782
1000487859,2023,Pipewalas House,0,221001,Homestay,False,False,25.31363,83.01184,1.911268583809333
1000488058,2023,Buddha Stays,1,221002,Hotel,False,False,25.3184,82.99137,0.7230300455778675
1000488232,2023,Shree Nanda  Guest House,0,221007,Villa,False,False,25.37774,83.01949,7.777807966156474
1000488594,2023,Neehan | Entire 2BR Apartment near Ganges,3,221010,Holiday Home,False,True,25.29071,82.9953,2.38481666121877
1000488877,2023,Hotel O Flagship Adbhut Moment Hotel,3,221007,Hotel,False,False,25.3535,83.00256,4.710277458555193
1000489238,2023,Balaji Atithi Bhawan,1,221010,Hotel,False,False,25.29798,82.99977,1.7096574267358324
1000489274,2023,Hotel Ananda Kashi,3,221001,Hotel,False,False,25.32044,83.01399,2.315570163553768
1000489401,2023,HOTEL R S INN,3,221007,Hotel,False,False,25.35268,83.02453,5.5239784202727
1000489614,2023,Shri prabha Kashi,0,221010,Homestay,False,True,25.30964,82.99618,0.42419714473883696
1000489728,2023,Amma Ka Ghar,0,221010,Homestay,False,False,25.31076,82.99826,0.5568408713699431
1000489965,2023,Hotel Vedangam Varanasi,3,221001,Hotel,False,False,25.29997,82.99972,1.5075480548972824
1000490384,2023,Shivalay Paying Guest House,0,221010,Homestay,False,False,25.30899,82.99305,0.34031096176556197
1000490598,2023,Anaya Retreat,3,221010,Hotel,False,False,25.30378,82.97393,2.1175618565654157
1000490854,2023,SS Palace Stay,0,221011,BnB,False,False,25.26176,82.98166,5.704924501559925
1000491301,2023,Collection O Vairagi Villa Shi,3,221003,Hotel,False,False,25.35767,82.97456,5.397660329382883
1000491984,2023,Collection O Maharaja Resort,3,221112,Hotel,False,False,25.39561,83.06859,12.007160921331904
1000492454,2023,THE TRIANA,3,221010,Hotel,False,False,25.30153,82.97519,2.13062208759287
1000492464,2023,Super Hotel O Sankat Mochan Gandhi Nagar,3,281001,Hotel,False,False,25.28378,82.99809,3.1861299820732976
1000493120,2023,POOJA GUEST HOUSE,1,221010,Guest House,False,False,25.30855,82.99904,0.7289532102250492
1000493285,2023,The Roma Home Stay,3,221007,Homestay,False,False,25.37851,83.01669,7.767126855144418
1000493300,2023,Hotel Mahadev Inn,2,221010,Hotel,False,False,25.31181,83.00017,0.7305837138516393
1000493355,2023,Hotel O V Residency,3,221005,Hotel,False,False,25.28282,82.9838,3.3764636594296547
1000493885,2023,Raghuvanshi Paying Guest House,0,221001,Guest House,False,False,25.31197,83.01034,1.7524087104806143
1000494105,2023,The Mandirian,3,221106,Hotel,False,False,25.24919,82.95674,7.878829622098559
1000494124,2023,5 PETALS,0,221007,Guest House,False,False,25.36393,83.0262,6.669104689391019
1000494240,2023,HOTEL DAWAT,3,221006,Hotel,False,False,25.44469,82.85617,20.155559229316548
1000494265,2023,Kashi Anandam- Signature Collection by Eight Continents,4,221011,Resort,False,False,25.21362,82.95248,11.675294128002708
1000494318,2023,Rudra Inn | Bed & Breakfast,0,221010,Apartment,False,False,25.30868,83.00504,1.27584520377115
1000494528,2023,Dwell hub stays,0,221010,Homestay,False,True,25.31064,82.99108,0.2412850784830706
1000494807,2023,Mandakini Homestay,0,221010,Homestay,False,False,25.31163,82.9945,0.16675998485305055
1000494880,2023,Tripli Hotels Silver Shine,3,221010,Hotel,False,False,25.31108,82.98644,0.6588761623568609
1000495963,2023,HosteLaVie | Dorms & Terrace with Ganga View,0,221001,Hostel,False,False,25.29444,83.00601,2.359755390049988
1000496303,2023,Treebo Raj Palace,3,221103,Hotel,False,False,25.30323,82.97032,2.4731451714897497
1000496617,2023,Hotel Sarc Inn,3,221010,Hotel,False,False,25.30773,82.9908,0.5247398201264662
1000496945,2023,Devargh Residency | Entire 1BHK @Lanka,0,221005,Homestay,False,True,25.27253,83.01187,4.789934046213999
1000496993,2023,Orchid Petal Nandini Grand,3,221004,Hotel,False,False,25.28648,82.9701,3.652314081340564
1000497087,2023,Siddhivinayak Temple Guest House,0,221010,Hostel,False,False,25.30345,82.98742,1.1037113473372815
1000497242,2023,Silver Coin Varanasi,0,221002,Guest House,False,False,25.30882,83.00943,1.6992719231774494
1000497352,2023,Captain Villa  Heritage House,3,221001,Homestay,False,False,25.30054,83.00684,1.8971461485934433
1000497422,2023,FabHotel Siddhant,3,221007,Hotel,False,False,25.37856,83.02051,7.898910565997768
1000497515,2023,Shivraj Inn,0,221005,Guest House,False,False,25.29065,83.00495,2.6696344258315667
1000497680,2023,Kashi Residency & cafe,0,221005,Homestay,False,False,25.26978,82.97714,4.960066778891904
1000498017,2023,Hotel O Shivi,3,221001,Hotel,False,False,25.32417,83.00441,1.7759040626622211
1000498130,2023,Durgawati house,0,221008,Homestay,False,True,25.2747,83.03285,5.7768706371160405
1000498607,2023,Super Hotel O Samne Ghat,3,221005,Hotel,False,False,25.27426,83.01236,4.634662140476738
1000499099,2023,MY ROOMZ BANARAS,3,221005,Guest House,False,False,25.29643,82.99892,1.8388153913972056
1000499700,2023,Hotel Diamond Palace,3,221010,Hotel,False,False,25.3089,83.00404,1.1725866541277061
1000499977,2023,wells inn hotel,4,221005,Hotel,False,False,25.2842,83.00369,3.280802755539835
1000501022,2023,ARYA GUEST HOUSE,0,221001,Guest House,False,False,25.31029,83.00633,1.3633963004830831
1000501278,2023,Dharm Resort,3,221008,Resort,False,False,25.27359,83.02374,5.281646881389911
1000501372,2024,Ganga Putra Inn | Rooms & Dorms,0,221001,Hostel,False,False,25.30043,83.00586,1.8342188681766471
1000501479,2023,AQUARIUS HOTEL,3,221002,Hotel,False,False,25.3387,82.98103,3.1949695028657974
1000502235,2023,SUJATA HOTEL,3,221007,Hotel,False,False,25.37234,83.02701,7.529398442061096
1000502236,2023,ShreeJi Guest House @Dashaswamedh Ghat,0,221001,Homestay,False,False,25.3071,83.00753,1.5695398381527046
1000502929,2024,HOTEL OM VILLA,3,221010,Hotel,False,False,25.30911,82.99474,0.3750598314196101
1000502953,2023,Haven Homestay Varanasi,0,221001,Homestay,False,False,25.29482,83.00499,2.2682926118712228
1000503577,2023,Praneeta Paying Guest House,0,221005,Homestay,False,False,25.28489,83.00532,3.2674938917544085
1000503919,2023,The Kashi Inn Varanasi,0,221005,Homestay,False,False,25.28189,83.00564,3.589412525579557
1000504197,2023,Hotel Shilva Inn Varanasi,2,221001,Hotel,False,False,25.30882,83.00443,1.2126624106762054
1000504586,2023,Trilok Residency,0,221001,Guest House,False,False,25.3065,83.00867,1.7003997374123607
1000505170,2024,Neerja Guest House,0,221005,Guest House,False,False,25.28204,82.99464,3.341256109830753
1000505783,2024,The Hobo Homes | Rooms & Dorms,3,221007,Hostel,False,False,25.36017,83.02411,6.202147782737557
1000506498,2024,Charan Niwas,3,221005,Apartment,False,False,25.29165,83.00098,2.4089581251618823
1000506768,2024,Gayatri Kunj,0,221010,Homestay,False,False,25.29932,82.97938,1.962632032166802
1000507701,2024,Vindhyarama Paying Guest House,0,221005,Homestay,False,False,25.28884,83.00343,2.789007429466479
1000508153,2024,The Banaras Hotel,2,221001,Hotel,False,False,25.30876,83.00673,1.4368175560472154
1000508267,2024,PS RESIDENCY,2,221001,Hotel,False,False,25.31057,82.99651,0.39773531470611484
1000508717,2024,Vedic Villa Resort,3,221011,Resort,False,False,25.21387,82.968,11.20049556296646
1000508721,2024,Shambhu Guest House,0,221001,Guest House,False,False,25.30923,83.00575,1.3284938155158719
1000509217,2024,Dhaneshwari Homestay,0,221001,Apartment,False,False,25.3178,83.01936,2.7348569640172875
1000509787,2024,The Banaras Homestay,0,221003,Homestay,False,False,25.37934,82.97277,7.751353084453488
1000510200,2024,Anand Lok @Lanka,0,221005,Homestay,False,False,25.2861,82.98831,2.922028973751331
1000510205,2024,Madhuri Guest House,0,221010,Guest House,False,False,25.31037,82.99624,0.3835002557438607
1000510441,2024,Hotel Aanandwan Palace,3,221106,Hotel,False,False,25.31484,82.97301,2.023936176441091
1000510657,2024,JSR Kedar | Bed & Breakfast,0,221001,Homestay,False,False,25.29895,83.00739,2.059332725701423
1000510744,2024,SHIV KASHI DORMITORY,0,221001,Hostel,False,False,25.30813,83.001,0.9228424625108074
1000511019,2024,FabHotel Deepak Palace,3,221005,Hotel,False,False,25.28882,83.00302,2.775704894893951
1000511231,2024,Vrindavan Home Stay and Tourist Services(LLP),0,221003,Homestay,False,False,25.38405,82.96941,8.34719869392896
1000511287,2024,Shree Madhvam Hostel,0,221001,Hostel,False,False,25.3132,83.00297,1.019635987164757
1000511294,2024,Paridhi | Entire 4BHK Apartment,0,221002,Apartment,False,True,25.34621,82.97726,4.111310520921002
1000511430,2024,The Mid City Home,0,221001,Homestay,False,False,25.30953,83.00328,1.0796597976316475
1000511436,2024,Shiv Shakti Paying Guest House,0,221001,Guest House,False,False,25.31197,83.01093,1.811714476396884
1000511591,2024,G.S. Home Stay,3,221001,Homestay,False,True,25.30962,83.00367,1.1151028131165082
1000512037,2024,KumarP Guest House Assi Ghat,0,221005,BnB,False,False,25.28783,83.00382,2.907801518729028
1000512053,2024,Hotel Vinayak Plaza,3,221010,Hotel,False,False,25.2837,82.99799,3.1932819131726573
1000512341,2024,Rama Inn Guest House,0,221002,Guest House,False,False,25.32454,82.98881,1.4488230723249251
1000512513,2024,Stay In Kaashvi | Bed & Breakfast,0,221002,Homestay,False,False,25.33796,82.9775,3.2710579590993585
1000512581,2024,Hotel O Kashi Inn,3,221005,Hotel,False,False,25.28182,83.00575,3.6006362479401237
1000512888,2024,Smriti Bhawan Resort & Lawn,2,221007,Guest House,False,False,25.35001,83.01208,4.6402476639710155
1000513020,2024,Super Hotel O SHIVA VALLEY HOTEL,3,221001,Hotel,False,False,25.27692,83.01219,4.3606569653436855
1000513028,2024,The White Canyon Hotel,0,221010,Guest House,False,False,25.30759,83.00266,1.0985958106676696
1000513040,2024,Hotel Shankara Residency,3,221005,Hotel,False,False,25.28048,83.00243,3.6383975575779033
1000513329,2024,ATITHYAM HOTEL,3,221005,Hotel,False,False,25.24729,82.96983,7.565330288514339
1000513460,2024,Shri Niwaas Guest House,0,221010,Guest House,False,False,25.30883,82.99466,0.3988496505562423
1000513502,2024,Mishra Guesthouse And Homestay,0,221007,Homestay,False,False,25.37489,83.0233,7.626100517596342
1000513692,2024,Hotel Chitrakoot,2,221007,Hotel,False,False,25.35298,83.0076,4.785024842834731
1000513905,2024,Comfort Kashi | Entire 3BR Apartment,0,221010,Apartment,False,True,25.29796,82.9773,2.2170287456945488
1000513913,2024,Vaaranya Woodhouse | Entire 1BHK Apartment,0,221003,Apartment,False,True,25.38335,82.96936,8.274007968593734
1000514950,2024,Hotel Leela Palace,3,221311,Hotel,False,False,25.25896,82.91267,9.99623373695875
1000515032,2024,Shiv kashi Home Stay,0,221004,Homestay,False,True,25.27357,82.96422,5.159789111319517
1000515035,2024,FabHotel Hari Kunj 900 m from Kashi Vishwanath Temple,3,221001,Hotel,False,False,25.30928,83.00006,0.7821488411051062
1000515268,2024,Shree Vishwa Ganga Homestay,0,221010,Homestay,False,False,25.30855,82.99904,0.7289532102250492
1000515724,2024,Hotel Omkar International,3,221010,Hotel,False,False,25.30931,82.99167,0.32882682621924353
1000516280,2024,Banaras Comfort Home Stay,0,221010,Apartment,False,False,25.3131,82.9807,1.2325689177032302
1000516418,2024,Dev Residency A Unit OF The Elegance,3,221005,Hotel,False,False,25.28209,82.99559,3.3420542074295585
1000516832,2024,Preetis Nest,0,221001,Apartment,False,True,25.29988,83.00036,1.5465924777654534
1000517025,2024,HOTEL PRAKASH,0,221001,Guest House,False,False,25.31067,82.99603,0.34933956813708583
1000517158,2024,Shri Dhara Heaven,3,221001,Hotel,False,False,25.31034,83.00311,1.0430696070932066
1000517407,2024,Heritage Haveli- A Luxury Homestay,3,221001,Homestay,False,False,25.32275,82.99886,1.3320158462829064
1000517442,2024,Hotel O Amantran Residency,3,221005,Hotel,False,False,25.27361,82.96469,5.129821022208094
1000517491,2024,SPOT ON Sai P Guest House,2,221010,Hotel,False,False,25.33463,83.00345,2.7254845101631817
1000517563,2024,Hotel Marine,3,221003,Hotel,False,False,25.38309,82.97641,8.071606864555537
1000518046,2024,Hotel VK Grand,1,221010,Hotel,False,False,25.30826,82.99834,0.6896989379451292
1000518283,2024,StayVista at The Ganga House,5,221001,Villa,False,True,25.31877,83.0232,3.1353853343741576
1000518387,2024,Shanti Residency,3,221010,Guest House,False,False,25.29383,82.99889,2.1131326426395667
1000519090,2024,Prestige Inn,2,221005,Hotel,False,False,25.26195,82.98154,5.686630287023916
1000519106,2024,Niketan Boutique Stay,0,221002,Apartment,False,False,25.33912,82.98096,3.2409355749996367
1000519161,2024,Kashi Vishram Palace,3,221001,Homestay,False,False,25.30985,83.006,1.3386400809795223
1000519211,2024,Hotel RIZ Varanasi,3,221002,Hotel,False,False,25.33728,82.98317,2.9714723767823186
1000519237,2024,Grootstays | Entire 3BR Apartment,0,221001,Apartment,False,True,25.34462,82.9813,3.8050955594193483
1000519463,2024,Banaras Cottage,0,221103,Cottage,False,False,25.30169,82.96638,2.9046550601761822
1000520044,2024,ZoomStay Service Apartments,0,221002,Apartment,False,True,25.34294,82.97295,3.977787556686707
1000520087,2024,Dhaneshwari Luxury Homestay,0,221001,Homestay,False,False,25.31707,83.01636,2.422706209353229
1000520168,2024,Hotel The Urban Villa,3,221010,Hotel,False,False,25.30471,82.97927,1.5952421451202488
1000520762,2024,Vrinda Garden,0,221010,Homestay,False,False,25.31037,83.00292,1.0236825476115425
1000520768,2024,Satshree Kothi Guest House,0,221001,Guest House,False,False,25.31809,83.01382,2.206899886739526
1000520909,2024,"KASHI INN, Varanasi",0,221001,Guest House,False,False,25.33131,83.04017,5.2110325832529005
1000520923,2024,"Krishna Vatika, Varanasi",2,221101,Guest House,False,False,25.48647,82.82803,25.503706442474613
1000521126,2024,Vista Inn,3,221001,Hotel,False,False,25.34164,82.99678,3.313457038280501
1000521151,2024,Hotel O Aanandwan Palace,3,123456,Hotel,False,False,25.31508,82.9667,2.655737252596028
1000521581,2024,Palm Villa | A Lavish Stay,0,221002,Villa,False,False,25.34762,82.99365,3.9561595710647146
1000521610,2024,Golden Lotus Varanasi,0,221002,Hotel,False,False,25.34386,82.99228,3.5379219133661786
1000521863,2024,Akay Guest House,0,221010,Guest House,False,False,25.31389,82.9907,0.3019337532306591
1000523453,2024,Krishna Homestay,3,221010,Homestay,False,False,25.31218,82.99096,0.19623083065034386
1000523612,2024,Kashi Homestay Sigra,0,221010,Homestay,False,False,25.31188,82.98869,0.4242686617556171
1000523681,2024,Happy Homes Homestay,0,221010,BnB,False,False,25.29954,82.97337,2.40650943943762
1000524024,2024,Hotel Mangal Murti,0,221001,Guest House,False,False,25.30876,83.00673,1.4368175560472154
1000524096,2024,Super Hotel O Varanasi Near Banaras Junction,3,221103,Hotel,False,False,25.29431,82.95994,3.8565491773304075
1000524194,2024,Sada Shiv Guest House Near Kashi vishwanath temple & ganga river,0,221001,Guest House,False,False,25.30677,83.00272,1.1478186351090092
1000524226,2024,Family Friendly Stay,0,221001,Homestay,False,False,25.3227,83.01129,2.1948452931064057
1000524279,2024,R K Guest House,3,221001,Hotel,False,False,25.31765,82.97392,2.007579133780068
1000524503,2024,Janki Kunj HomeStay Villa Varanasi,0,221002,Villa,False,True,25.3513,82.98043,4.541206962486361
1000524644,2024,Aagam,0,221010,Homestay,False,False,25.30036,82.99445,1.3088452757342106
1000525132,2024,Via Ganga Inn Near Assi Ghat,3,221001,Hotel,False,False,25.29099,83.00444,2.612843733852572
1000525470,2024,Indu residency,0,221010,Apartment,False,True,25.30057,82.98628,1.4396535374517752
1000525949,2024,Divine Kashi Luxury Homestay,0,221003,Homestay,False,False,25.35865,82.95293,6.556982593550058
1000526344,2024,FabExpress JP Villa,3,221007,Hotel,False,False,25.37689,82.97649,7.396462232823215
1000532095,2024,KASHYAAM INN,3,221010,Hotel,False,False,25.31171,82.98357,0.9392698895222621
1000532511,2024,Radhe Krishna Homestay,0,221001,Homestay,False,False,25.3107,83.0057,1.2946866634296104
1000532519,2024,The Banaras Inn,0,221001,Homestay,False,False,25.31759,82.99017,0.6748778039114862
1000533450,2024,HOTEL LAXMI PALACE,2,221002,Hotel,False,False,25.32633,82.99342,1.5889520573013367
1000534984,2024,Nath Palace,3,221106,Hotel,False,False,25.25765,82.96178,6.810390607775742
1000535574,2024,Hotel Archana By BookingCare,3,221106,Hotel,False,False,25.31765,82.97392,2.007579133780068
1000535696,2024,Ayurveda bhavan Homestay,0,221001,Homestay,False,False,25.31641,83.01878,2.6455713008352415
1000535705,2024,Kashidhya @Namoghat,0,221010,Apartment,False,True,25.32755,83.0275,3.8809090821423458
1000536639,2024,GRS Palace,3,221103,Hotel,False,False,25.31735,83.00995,1.8117617893324665
1000536808,2024,Vivah Vishram Bhawan,0,221010,Lodge,False,False,25.30841,82.99802,0.6540724898843993
1000537346,2024,Hotel O Pramod Garden,3,221007,Hotel,False,False,25.36611,83.03758,7.502893620289451
1000537635,2024,Glory Ace Home Stay,0,221010,BnB,False,False,25.3037,82.98901,1.0074912382267496
1000537800,2024,Hotel Aastha Inn,2,221001,Hotel,False,False,25.32058,83.01817,2.710808881272825
1000538347,2024,Nilay House Varanasi | A Boutique Stay,0,221005,Homestay,False,False,25.28791,83.00461,2.930536905500273
1000538353,2024,Moon High Stays | A Luxury Stay,3,221001,Homestay,False,False,25.32222,83.01936,2.889543738021227
1000539068,2024,Hotel Ayushman inn,2,221002,Hotel,False,False,25.34753,82.96843,4.649543036180892
1000539119,2024,Shivay inn,0,221001,Homestay,False,False,25.32755,83.02604,3.749996781139947
1000539150,2024,Sri Shyam Villas,3,221010,Hotel,False,False,25.31116,82.99425,0.1672644312162555
1000539194,2024,Sunrise Meadows,2,221005,Hotel,False,False,25.28243,83.00377,3.4696986123395854
1000539256,2024,Narayan Palace Luxury Homestay,3,221001,Homestay,False,False,25.30953,83.00328,1.0796597976316475
1000539321,2024,Prakash Residency,2,221001,Hotel,False,False,25.30833,83.00176,0.9812723568780811
1000539584,2024,Baba Paying Guest House by GRB,0,221106,Homestay,False,False,25.29404,82.97552,2.6578920560964754
1000539683,2024,Sri Madhav-Affordable AC rooms-Near Sankat Mochan,0,221005,Homestay,False,False,25.29421,82.99854,2.0627254247038773
1000539876,2024,Homely Comfort in the City center at Raj Homestay,0,221001,Homestay,False,True,25.31659,83.00298,1.1315250053336454
1000539930,2024,Super Hotel O B.G.P.G House,3,221005,Hotel,False,False,25.28255,82.98344,3.415279302976324
1000540145,2024,Shivoham in,3,221001,Hotel,False,False,25.29649,83.00393,2.0544220511176294
1000540301,2024,StayVista at Arcadian Manor,5,221108,Farm House,False,True,25.29748,82.95077,4.534977065526632
1000540736,2024,KASHI NIWAS,3,221001,Hotel,False,False,25.31106,83.0077,1.4910723036543143
1000540795,2024,New imperial homestay,0,221010,Homestay,False,False,25.3094,83.00069,0.8359450939361724
1000541124,2024,Shri Ram Villa,0,221010,Homestay,False,False,25.28909,82.99085,2.5611440484804953
1000541615,2024,Shri Bholenath Atithi Bhawan,0,221010,Guest House,False,False,25.31758,83.00442,1.310621948287641
1000541748,2024,@homes,0,221010,Apartment,False,True,25.30617,82.99138,0.6713512081622061
1000541785,2024,Shri Rameshwaram Homestay,0,221001,Homestay,False,False,25.30747,83.00761,1.5631948314897708
1000542382,2024,Aparajita Nidhi Homestay,0,221005,Apartment,False,False,25.28393,83.00544,3.3708884755677473
1000542397,2024,The Corner House,0,221002,Homestay,False,True,25.32413,82.99538,1.3662930981535881
1000542403,2024,The Corner House / Rooms,0,221002,Homestay,False,False,25.32415,82.9954,1.3688465541131263
1000542610,2024,G.K .Hotel,3,221105,Hotel,False,False,25.4128,82.88388,15.668965808392148
1000542616,2024,Raj Villa Homestay,0,221002,Homestay,False,False,25.32354,82.99283,1.2779035433369146
1000542652,2024,Samridhi Homestay | Tulsi Ghat,0,221001,Homestay,False,False,25.29088,83.00512,2.6547261311895483
1000542959,2024,Usha Residency 2BHK,0,221005,Homestay,False,False,25.26992,83.01054,5.008626612860837
1000543018,2024,SHREE SHIVAY NAMASTUBHYAM HOTEL,3,221010,Hotel,False,False,25.30643,82.98759,0.8220914501520091
1000543167,2024,Usha Residency 3BHK Flat,0,221005,Homestay,False,True,25.26987,83.01055,5.014182531249305
1000543340,2024,Sitaram P Guest House,0,221001,Homestay,False,False,25.32067,83.01287,2.2239076162386286
1000543504,2024,VIMOKSHA RESIDENCE,2,221001,Hotel,False,False,25.30868,83.0017,0.9599646148132468
1000543591,2024,TRIDEV INN,0,221010,Homestay,False,False,25.29868,82.9744,2.381278182967153
1000544089,2024,Hotel Divyanshi Inn,3,221001,Hotel,False,False,25.32028,83.02538,3.39001439222253
1000544220,2024,Hotel Green Park Varanasi,0,232101,Guest House,False,False,25.29725,83.03658,4.688501538719513
1000544377,2024,The Banaras Guest House,0,221001,Guest House,False,False,25.30771,82.99676,0.61861131421091
1000544584,2024,The Commune Kashi | Entire 2BHK Apartment,0,221001,Apartment,False,True,25.31901,83.00719,1.6311335417685922
1000544615,2024,KAC,3,221007,Hotel,False,False,25.38337,82.97374,8.161204566711136
1000544879,2024,Kashika In Home Stay,0,221010,Homestay,False,False,25.30913,82.97838,1.495838957446002
1000545236,2024,Raahee homestay,0,221005,Homestay,False,True,25.28788,82.99847,2.7449112688312214
1000545286,2024,Triveni International,3,221005,Hotel,False,False,25.28697,83.00406,3.0054974554785723
1000545795,2024,Mangalam Homestay,0,221010,Homestay,False,True,25.30448,82.99301,0.8415590928547887
1000546041,2024,Sri Namami Gange Near Ghats,0,221005,Homestay,False,False,25.29045,83.00396,2.646165709332289
1000546345,2024,BuddhaInn | Enchanted 4BHK Garden Villa,0,221007,Villa,False,True,25.37156,83.02522,7.371285727438006
1000546542,2024,Hotel Sea Esta,2,221001,Hotel,False,False,25.3215,82.99765,1.1541260817697865
1000546901,2024,Hotel Shree Radha Krishna,3,221010,Hotel,False,False,25.30912,83.00223,0.9921191624371192
1000547010,2024,KASHIKA HOMES 2 BHK,0,221010,Homestay,False,True,25.3116,82.98065,1.233041938555454
1000547125,2024,Hotel Shivganga Grand,3,221001,Hotel,False,False,25.31369,82.9995,0.6874494870786807
1000547266,2024,StayVista at Serenity By The Ganges,0,221011,Villa,False,True,25.25132,83.02489,7.4792301148613465
1000547274,2024,StayVista at Ivy @ Serenity by the Ganges,0,221011,Villa,False,True,25.25132,83.02489,7.4792301148613465
1000547286,2024,StayVista at Bay @ Serenity by the Ganges,0,221011,Villa,False,True,25.25132,83.02489,7.4792301148613465
1000547645,2024,Shankar Vilaas | A Boutique Stay,0,221010,Homestay,False,False,25.30817,82.98253,1.1286829488191354
1000547951,2024,Shree Balaji Paying Guest House,0,221001,Homestay,False,False,25.29906,83.00491,1.8819112846228274
1000547953,2024,The Residency,0,221002,Apart-hotel,False,False,25.3386,82.97817,3.3031724640143962
1000548164,2024,Narayan Palace | Entire 3BHK Apartment,0,221001,Homestay,False,True,25.30953,83.00328,1.0796597976316475
1000549447,2024,Shivansh Venktesh Vilas,0,221001,Homestay,False,False,25.3163,83.01136,1.914200132155818
1000549503,2024,Shri Kailash Pati Guest House,0,221001,Guest House,False,False,25.31149,83.01057,1.7765931968595121
1000549603,2024,Harisharanam(2 BHK),0,221002,Homestay,False,True,25.3255,82.99518,1.5131744105256542
1000549607,2024,KASHIKA HOMES AC ROOMS,0,221010,Homestay,False,False,25.31158,82.98065,1.2331338376586247
1000549789,2024,Indigo Stays  Luxury 2BHK Bliss,0,221010,Apartment,False,True,25.29574,82.99778,1.8783490974284818
1000549973,2024,Ganga seva ashram,0,221005,Homestay,False,False,25.27977,83.00426,3.766237430164732
1000550195,2024,Rani Villa Family HomeStay,0,221005,Villa,False,True,25.28152,83.00533,3.617000599904624
1000550609,2024,Kunal Guest House Varanasi,0,221002,Homestay,False,False,25.34331,83.01865,4.3334134931931
1000550772,2024,The Mudra hotel,4,221002,Hotel,False,False,25.36036,83.01998,6.021814155879051
1000550776,2024,Laxmi Villas,0,221002,Homestay,False,False,25.32992,82.99518,2.0003967824871274
1000550828,2024,Home style harmony,0,221106,Apartment,False,True,25.31161,82.95701,3.608647491433911
1000551005,2024,Raj Homestay Villa,0,221010,Homestay,False,False,25.31489,82.98907,0.49861274837500075
1000551259,2024,Kartik | Entire 3BHK Homey Apartment,0,221007,Apartment,False,True,25.35493,83.01489,5.2552684517954535
1000551713,2024,Quality Inn City Centre Varanasi,4,221010,Hotel,False,False,25.30918,82.988,0.5873261677418449
1000551755,2024,"Agrawal's Home Stay | Luxurious, 2BHK",0,221008,Apartment,False,True,25.26863,83.03966,6.7381206996413985
1000551820,2024,Varuna Palace | Near Mandir & Ghat's by GRB,0,221002,Homestay,False,False,25.33674,82.99725,2.7801407067836346
1000551924,2024,Aaradhya | Entire 2BHK Holiday Home,0,221007,Homestay,False,True,25.36072,82.99983,5.456650114119161
1000551973,2024,Krishna Deluxe Stay,0,221005,Homestay,False,False,25.29009,82.9915,2.4456816858839168
1000552640,2024,Bebi Palace Varanasi,0,221001,Homestay,False,False,25.30755,83.00926,1.718252139823405
1000553524,2024,Hotel Medwin Kashi Dham,3,221001,Hotel,False,False,25.32065,83.01292,2.227487694634322
1000553677,2024,Super Collection O Karaudi Marg Chittaipur Varanasi,3,221011,Hotel,False,False,25.26983,82.97358,5.080630483594016
1000553837,2024,Urmila's HomeStay,0,221003,Homestay,False,False,25.36236,82.9686,6.1045281686468895
1000554338,2024,Raahi | Entire 4BHK Near Kashi Vishwanath,0,221001,Apartment,False,True,25.30918,83.00474,1.2314932336809836
1000554666,2024,Hey Madhav Homestay,0,221007,Homestay,False,True,25.35257,83.01459,5.00518700305582
1000554741,2024,Tirtha,2,221005,Guest House,False,False,25.28502,83.00768,3.3522903518383296
1000554804,2024,Nilambar | Entire 3BR Apartment,0,221003,Apartment,False,True,25.35179,82.95888,5.587814173166268
1000554808,2024,Raktambar | Entire 3BR Apartment,0,221003,Apartment,False,True,25.35179,82.95888,5.587814173166268
1000554810,2024,BlueTique | Entire 4BHK Apartment,0,221002,Apartment,False,True,25.34581,82.98846,3.7806991048151377
1000554819,2024,Comfort Cottage,0,221106,Homestay,False,False,25.28686,82.97524,3.3163950266334266
1000554928,2024,Shreeniti Stay,0,221001,Apartment,False,False,25.30163,82.99626,1.206449445114203
1000555059,2024,Kashi Shree,0,221010,Homestay,False,False,25.31358,83.00169,0.8991779318841147
1000555141,2024,Aryan Home Stay,0,221108,Homestay,False,False,25.29253,82.95131,4.711258097459078
1000555339,2024,Grace | Entire Lovely 3BHK Fully Furnished,0,221010,Apartment,False,True,25.30163,82.99626,1.206449445114203
1000555696,2024,Konamae | Entire 3BHK Apartment,0,221002,Apartment,False,True,25.34581,82.98846,3.7806991048151377
1000555809,2024,HOTEL AMBASSADOR,2,221005,Hotel,False,False,25.28087,83.00275,3.6052745748036488
1000555989,2024,Abhinandan Guest House,3,221001,Guest House,False,False,25.30673,83.00691,1.5267884248489603
1000556000,2024,Hotel Mantavya,3,221004,Hotel,False,False,25.28783,82.96941,3.5820684383956505
1000556045,2024,Shiv Kashi Lawn And Guest House,0,221003,Guest House,False,False,25.38705,82.97028,8.644259082036537
1000556352,2024,SHREE JI STAY,0,221010,Apartment,False,False,25.30701,82.98,1.4131651923751871
1000556431,2024,Hotel O R B Palace,3,221002,Hotel,False,False,25.3229,82.98624,1.3802888464471166
1000556688,2024,Hotel Varuna Grand,3,221002,Hotel,False,False,25.34103,82.96601,4.206372927246566
1000556910,2024,TAG Homestay,0,221010,Homestay,False,True,25.30654,82.97739,1.6756893325714535
1000557283,2024,Satyam Hotel and Guest House,0,221004,Homestay,False,False,25.28928,82.96983,3.433816727561276
1000557287,2024,Nirvana Horizon | Entire 3BHK Apartment,0,221001,Apartment,False,True,25.30471,82.97927,1.5952421451202488
1000557667,2024,Vishwanath Abode | Entire 2BHK Apartment,0,221001,Apartment,False,True,25.30471,82.97927,1.5952421451202488
1000557727,2024,Sri Kashi Stay,0,221001,Homestay,False,False,25.31359,83.01356,2.0831169858759067
1000557766,2024,"Feel Aesthetic Kashi, Varanasi",0,221001,Homestay,False,False,25.31799,83.01758,2.566596431991899
1000557805,2024,Travellers guest house,0,221002,Homestay,False,True,25.33831,82.98429,3.0459450806220603
1000557833,2024,Sanskriti Paying GuestHouse,0,221001,Cottage,False,False,25.28228,83.00651,3.581408017957929
1000557837,2024,River Town Stay | Near Ghats,0,221001,Homestay,False,False,25.3178,83.01936,2.7348569640172875
1000557846,2024,Shri Ram Bhavan,0,221001,Homestay,False,False,25.32311,83.02866,3.7984229531358644
1000557937,2024,Kanti Villa | Retreat on MahaShiva Land,0,221010,Apartment,False,True,25.30163,82.99626,1.206449445114203
1000557946,2024,THE PLEASURE STAY,3,221002,Hotel,False,False,25.33021,82.99262,2.019756013248314
1000558000,2024,Mangalmay Kashi | Near Kashi Vishwanath nd Ganga Ghat,0,221001,Homestay,False,False,25.3204,83.01115,2.0555180205875825
1000558040,2024,Kashi Stay - Fully Furnished 2 BHK Apartment,0,221010,Apartment,False,True,25.31584,82.99004,0.5107301851215791
1000558108,2024,Hotel RK Palace,3,221001,Hotel,False,False,25.31984,83.00777,1.7270781744774917
1000558239,2024,Vishwanath Home Stay,0,221005,Homestay,False,False,25.28464,83.00542,3.2970255806173574
1000558603,2024,LOG INN BANARAS,2,221010,Hotel,False,False,25.31568,82.9837,1.0097314417580847
1000558725,2024,The Commune | Rooms & Dorms,0,221010,Hostel,False,False,25.30817,82.9985,0.7085491207018143
1000559045,2024,Hotel O Mahaveer Palace,3,221002,Hotel,False,False,25.3577,82.98396,5.155315104366213
1000559183,2024,Alokah Kashi,3,221007,Hotel,False,False,25.35762,83.01111,5.387526018521298
1000559475,2024,AURA HOMESTAY-THE PERFECT HOMESTAY,0,221005,Apartment,False,True,25.29735,82.98106,2.022180013432047
1000559549,2024,Gulab home stay,0,221001,Homestay,False,False,25.29138,82.99262,2.298329235024348
1000559656,2024,Hotel VR Lux,3,221004,Hotel,False,False,25.30121,82.96268,3.2687575388243304
1000559719,2024,Shivansh Stay,0,221001,Homestay,False,False,25.30298,82.98144,1.531432170334058
1000559736,2024,Rudraksha Inn,0,221010,Homestay,False,False,25.31349,82.98321,0.9878038313928943
1000560128,2024,Pushpanjali Guest House,0,221001,Homestay,False,False,25.32239,83.01134,2.180706866639613
1000560205,2024,Hotel Anant Inn,3,221007,Hotel,False,False,25.37156,83.02522,7.371285727438006
1000560223,2024,NATURE Homestay,0,221007,Homestay,False,True,25.37318,83.01734,7.227469714563615
1000560237,2024,NARAYANI PAYING GUEST HOUSE,0,221010,Homestay,False,False,25.31163,83.00105,0.8198799594497562
1000560420,2024,Shree KB Guest House,2,221001,Guest House,False,False,25.31855,83.01578,2.4101552110314235
1000560500,2024,RUDRA PAYING GUEST HOUSE NAGWA,2,221005,Guest House,False,False,25.28433,83.00742,3.4099797034619805
1000560681,2024,Glow Inn Homestay,0,221001,Homestay,False,False,25.3263,83.02634,3.7154379137080547
1000560781,2024,Shivangan homestay,0,221001,Homestay,False,False,25.29245,83.00554,2.5222356378630373
1000560933,2024,The Banaras Inn,0,201010,Homestay,False,False,25.31752,82.99013,0.6694439706487033
1000561128,2024,Rudraksha Kashi Inn By GRB,0,221001,Homestay,False,False,25.32216,83.01567,2.549424043765388
1000561172,2024,Shri Ram Paying Guest House-Modern Retreat by Sarraf,0,221001,Homestay,False,False,25.31381,83.01337,2.066258260942231
1000561178,2024,Shri Ram Paying Guest House@3bhk,0,221001,Homestay,False,True,25.31381,83.01337,2.066258260942231
1000561246,2024,leisure home stay,0,221010,Homestay,False,False,25.29153,82.99371,2.282898096303188
1000561351,2024,Nanak Palace Guest House,3,221010,Hotel,False,False,25.3077,83.00149,0.9890171310141939
1000561586,2024,Vistara Courtyard | Garden Views,0,221105,Homestay,False,False,25.38398,82.90333,12.04173377525723
1000561598,2024,Mishra Ganesh Shankar Homestay | Assi Ghat,0,221005,Homestay,False,False,25.28881,83.00304,2.7774764037216966
1000561607,2024,Himalaya Inn Guest House Varanasi,0,221001,Homestay,False,False,25.32272,83.01666,2.6662184732579566
1000561631,2024,Shri Ram paying guest house Twin Room,0,221001,Homestay,False,True,25.3178,83.01936,2.7348569640172875
1000561638,2024,The Shanti Abode | Luxe 2BHK City Center,0,221001,Apartment,False,True,25.30788,82.99727,0.638078778772664
1000561640,2024,Good Morning Paying Guest House,0,221001,Guest House,False,False,25.31353,83.00356,1.0834684114739288
1000561722,2024,Odyssey's Executive | Restaurant & Parking,0,221010,Homestay,False,False,25.30471,82.97927,1.5952421451202488
1000561723,2024,Ganga Sparsh | Near Kashi Vishwanath Temple,0,221001,Homestay,False,False,25.31031,83.00769,1.4985312557127484
1000561858,2024,Ajnara | Entire 3BHK Apartment,0,221003,Apartment,False,True,25.35234,82.95865,5.650355126291384
1000561884,2024,Ajnara | Entire 4BHK Apartment,0,221003,Apartment,False,True,25.35234,82.95865,5.650355126291384
1000561902,2024,DS Residency Varanasi,0,221001,Homestay,False,False,25.33687,82.99722,2.793948157625783
1000561962,2024,VS Residency,0,221001,Homestay,False,False,25.30821,82.99742,0.6228433750476478
1000562027,2024,Ruby Homestay Varanasi,0,221010,Homestay,False,False,25.30217,82.97904,1.774659758590452
1000562127,2024,Hotel H Inn,0,221010,BnB,False,False,25.3126,83.00305,1.021445630955872
1000562186,2024,Banaras Gully House | Dorms & Rooms,0,221001,Hostel,False,False,25.30374,83.00666,1.662749978613848
1000562893,2024,Kashi Vilaa,3,221001,Hotel,False,False,25.30822,83.00105,0.9226167991534826
1000563350,2024,Live love laugh stays,0,221010,Apartment,False,True,25.31125,82.99539,0.26491527309343244
1000563391,2024,Mandakini Tatt Homestay,0,221001,Homestay,False,False,25.31737,83.01283,2.0882499152033773
1000563414,2024,Kailash Dham,0,221005,Homestay,False,False,25.28464,83.00684,3.3540895984177976
1000563417,2024,AP Residency,0,221001,Homestay,False,False,25.31754,83.01234,2.046623134120611
1000563628,2024,Madhavi Homestay,0,221001,Apart-hotel,False,False,25.31631,83.01077,1.8570736319652468
1000563697,2024,Amrita Residency Non Ac,0,221007,Homestay,False,True,25.36867,83.00243,6.368431590460139
1000563765,2024,Jai Radhe Krishan Homestay,0,221010,Homestay,False,False,25.31046,83.00823,1.550386017016155
1000563851,2024,Vishwa Vimal Vilas,0,221011,BnB,False,False,25.22506,82.9413,10.976715666356894
1000563893,2024,Shivangan stay,0,221005,Apartment,False,True,25.28462,82.99577,3.063380283439093
1000564010,2024,Hotel Evara,3,221007,Hotel,False,False,25.35324,83.00248,4.680331238551094
1000564048,2024,Local Lok | Rooms & Dorms,0,221003,Hostel,False,False,25.35647,82.95077,6.506326337008251
1000564271,2024,Mahant Ji Residency,0,221001,Guest House,False,False,25.31001,83.0109,1.8228306821377964
1000564565,2024,Serenity Escape | A Luxurious Retreat,0,221005,Homestay,False,False,25.29019,82.99652,2.457464395165598
1000564909,2024,Hotel Shri Shankar Inn,2,221010,Hotel,False,False,25.30699,83.0026,1.1250417897397265
1000564970,2024,hotel Srijan Grand,3,221007,Hotel,False,False,25.36642,83.0039,6.146031463731084
1000565081,2024,Krimson Bricks Villa,0,221011,Homestay,False,True,25.25124,82.9773,6.941206177951314
1000565343,2024,Kashi Stay   3 Bedroom Fully Furnished AC Apartment,0,221010,Apartment,False,True,25.31587,82.99007,0.5118016921501365
1000565421,2024,NPS HomeStay,0,221010,Homestay,False,False,25.31432,82.98987,0.3962468308840638
1000565793,2024,Unique Home Stay,0,221002,Homestay,False,True,25.32595,82.99639,1.585013617137567
1000565874,2024,MJ Home Stay,0,221010,Homestay,False,False,25.31847,82.99166,0.7250333876305872
1000566472,2024,Hotel Geet Palace Inn,3,221001,Hotel,False,False,25.32405,83.00744,1.9786587038696137
1000566648,2024,Shiva Residency | Bed & Breakfast,0,221010,Homestay,False,False,25.30855,82.99904,0.7289532102250492
1000566986,2024,VIBES OF KASHI,3,221001,Hotel,False,False,25.2965,83.00394,2.054028433235098
1000567398,2024,Kailasha Inn,0,221010,Holiday Home,False,False,25.30997,82.98531,0.7978051218138181
1000567487,2024,The Nandi International | A Boutique Homestay,0,221005,Homestay,False,False,25.28182,83.00542,3.588873346878544
1000567654,2024,Hotel O Shivaalik,3,221001,Hotel,False,False,25.26398,82.95967,6.303498296999387
1000568393,2024,Shree Inn,3,221001,Hotel,False,False,25.3072,83.00558,1.3832904103083448
1000568509,2024,KASHIKA AC ROOMS,0,221010,Homestay,False,False,25.31169,82.98069,1.2286592786848514
1000568807,2024,Kashi Heritage | Entire 2BHK Apartment,0,221004,Apartment,False,True,25.29434,82.97646,2.5710913104170046
1000569016,2024,Treebo Om Shree Banaras,3,221010,Hotel,False,False,25.29447,82.97163,2.897425215566674
1000569517,2024,Ehsaas | 2BHK APARTMENTS,0,221010,Apart-hotel,False,False,25.30186,82.98633,1.3116260134508768
1000569849,2024,Dhanwantri Niwas Guest House,0,221001,Homestay,False,False,25.32911,83.01916,3.250026953602591
1000569903,2024,Darbarhomestay,0,221919,Apartment,False,False,25.30436,82.99403,0.8622641030716969
1000569940,2024,Veda's Grand BnB,0,221001,BnB,False,False,25.31267,83.00387,1.1041934716438677
1000570577,2024,Vrrinda By GRB,0,221010,Homestay,False,False,25.30631,82.99631,0.7239421919368376
1000570712,2024,Lakshman Villa Homestay,0,221010,Homestay,False,True,25.30928,82.9982,0.6146810786750605
1000570874,2024,Akash HomeStay,0,221010,Homestay,False,True,25.31233,83.00101,0.8151443187915869
1000571079,2024,Hotel Kashi Grand Inn,3,221001,Hotel,False,False,25.30898,83.00139,0.918445557927633
1000571086,2024,FabHotel LS Grand,3,221001,Hotel,False,False,25.2868,82.96883,3.7067605797645475
1000571443,2024,Aura stays- Stay with Comfort,0,221002,Homestay,False,True,25.3386,82.97817,3.3031724640143962
1000572386,2024,Mahabir Stay | Bed & Breakfast,0,221010,BnB,False,False,25.31108,83.00189,0.9093906329782915
1000573014,2024,Kashi Darshan Hotel,0,221001,Homestay,False,False,25.31594,83.01186,1.953687538120034
1000573426,2024,L S Grand By GRB,2,221004,Hotel,False,False,25.28681,82.9689,3.701326160189067
1000573431,2024,Shree Ram Paying Guest House @ 4BHK,0,221001,Apart-hotel,False,False,25.3178,83.01936,2.7348569640172875
1000574255,2024,Holy City Inn | Near Assi Ghat,0,221001,Homestay,False,False,25.29096,83.00543,2.6614411044606743
1000574322,2024,Western Stay Inn 15 Mins Walking From Assi Ghat Varansi,3,221005,Hotel,False,False,25.28706,82.998,2.8252957803118575
1000578481,2024,Rudra Backpackers Hostel,0,221007,Homestay,False,False,25.3651,83.00067,5.950510176124674
1000579226,2024,Holy Ganges VNS,0,221010,Hostel,False,False,25.29655,82.99785,1.7934890243370492
1000579483,2024,Aasiyana Homes,0,221008,Homestay,False,True,25.25888,83.04079,7.62421338404882
1000579502,2024,Treebo Golden Kashi,3,221002,Hotel,False,False,25.35904,82.96014,6.1764006841897965
1000579717,2024,Shivashray Villa,0,221010,Homestay,False,False,25.31038,82.97535,1.7745155910574475
1000580610,2024,Swastik P. Guest Room,2,221005,Lodge,False,False,25.30968,83.00462,1.206504166328994
1000580826,2024,Maa Vishalakshi Home Stay,0,221001,Homestay,False,False,25.32379,83.01195,2.3170438967646785
1000580880,2024,The Peacful Palace,0,221005,Homestay,False,False,25.28406,83.00511,3.345176455306323
1000580958,2024,Stay Matters Skylight,0,221010,Apartment,False,True,25.31021,82.9851,0.8108990892678892
1000580977,2024,Raghav Vilas,0,221010,Homestay,False,True,25.31318,83.00082,0.8053405061880415
1000580980,2024,Prince guest house,2,221005,Guest House,False,False,25.28602,82.98832,2.930654647015896
1000581123,2024,THE LUXURY INN,0,221002,Homestay,False,False,25.31794,82.98937,0.7454192611512925
1000581451,2024,Mukund paying guest house,0,221005,Homestay,False,False,25.28495,83.00577,3.2789054388663805
1000581784,2024,Tattva Homestay,0,221001,Homestay,False,False,25.31145,82.99233,0.08819313847257629
1000581820,2024,BLISSFULHAVEN (BH),0,221010,Homestay,False,False,25.30103,82.99998,1.4165056252728605
1000582485,2024,Super Townhouse Cantonment Varanasi Formerly Sarin Inn,3,221010,Hotel,False,False,25.33917,82.98109,3.2412898011125075
1000582559,2024,Aviral Ganga,4,221005,Hotel,False,False,25.36269,82.99484,5.634512630755329
1000582612,2024,Abhishekam Inn,0,221001,Guest House,False,False,25.31992,83.01556,2.4394844719489077
1000582643,2024,Yash Paying Guest House,0,221001,Villa,False,False,25.29188,83.00388,2.4991831365920167
1000583003,2024,Kartikeya Home Stay,0,221001,Homestay,False,False,25.3227,83.01667,2.666130034624176
1000583006,2024,Luxury Stay  Private Home with Jacuzzi   Pool,0,221011,Villa,False,True,25.25505,83.0177,6.810469965536706
1000583176,2024,Krishna Garden,0,221001,Apartment,False,True,25.32054,83.00236,1.3396233174755234
1000583277,2024,Gopal Kunj 1  Rooms  Apartment   Flat  Near BHU,0,221010,Apartment,False,True,25.28016,82.97426,4.010798761955179
1000583411,2024,The Wings Home | Kashi Roof Top 1BHK,0,221005,Homestay,False,True,25.24935,82.95481,7.954653541206245
1000583747,2024,Thakur Homestay- Your Serenity in Varanasi,0,221001,Homestay,False,False,25.30969,83.00463,1.2072431542491215
1000584320,2024,Hotel Rajveer Inn,3,221002,Hotel,False,False,25.34481,82.9697,4.3256837816976725
1000584365,2024,Hotel Vishwam Residency,3,221004,Hotel,False,False,25.28345,82.96842,4.021414061779475
1000584373,2024,KUSUM PALACE (HOMESTAYS),0,221010,Homestay,False,True,25.31233,82.99441,0.15433747723075103
1000584656,2024,MARUTI ( P) GUEST HOUSE,0,221005,Villa,False,False,25.28013,82.99957,3.6117573172853663
1000584673,2024,Shivoham Suites,0,221005,Homestay,False,False,25.28647,82.9804,3.1096283594822354
1000584941,2024,Kutumbh 3BHK Luxury Stay,0,221010,Apartment,False,True,25.2943,82.97316,2.7991148239101675
1000585020,2024,New Kashi Paying Guest House Varanasi,0,221010,BnB,False,False,25.31903,82.9973,0.8931936154901146
1000585114,2024,Hotel O JMD,3,221001,Hotel,False,False,25.30903,83.00123,0.9014479638749231
1000585158,2024,HOTEL THE MANOR,3,221103,Hotel,False,False,25.30193,82.96845,2.703666247335723
1000585244,2024,Ganges Palace,0,221005,Homestay,False,False,25.25597,82.97435,6.508701623155753
1000585303,2024,The ECSTASY Farms by Vaaranya Group,0,221105,Villa,False,True,25.4168,82.88072,16.20904781301537
1000585358,2024,Super Deluxe Room| The Farms by Vaaranya Group,0,221105,Villa,False,False,25.41664,82.88097,16.178800968564932
1000585534,2024,HOTEL KASHI VIEW HOMESTAY,0,221001,Homestay,False,False,25.31042,83.0062,1.348447989358246
1000585658,2024,Banaras Kila (By PM Resort),4,221006,Resort,False,False,25.42834,82.8626,18.40150467932496
1000585845,2024,Siddhi Vinayak Inn Varanasi,0,221007,BnB,False,False,25.37958,82.99342,7.509421163980057
1000586225,2024,Thakur Ji P Guest House By GRB,0,221001,Homestay,False,False,25.31024,83.00496,1.2281629013865554
1000586260,2024,SPOT ON THE RUSTIC INN GUEST HOUSE,2,221105,Hotel,False,False,25.42356,82.87725,16.993623510522603
1000586593,2024,KashVi Hotels,3,221001,Hotel,False,False,25.30845,82.99964,0.7862266669301206
1000586972,2024,Super Townhouse Ghunghrani Street Godowlia Formerly Raghuveer Temple,3,221001,Hotel,False,False,25.31239,83.00864,1.58195944257096
1000586988,2024,GK Guest House,0,221001,Homestay,False,False,25.32119,83.01044,2.034545414206245
1000587084,2024,Om Palace Inn,0,221001,Homestay,False,False,25.3227,83.01667,2.666130034624176
1000587360,2024,Evara Inn,3,221005,Hotel,False,False,25.28368,82.98025,3.4013084078378664
1000587701,2024,Hotel O Back Packers Stay,3,221001,Hotel,False,False,25.28731,83.0032,2.9389102886731955
1000587710,2024,Shivsatwik | Entire 2BHK Homestay,0,221011,Homestay,False,True,25.24922,82.95023,8.198669377950115
1000587741,2024,Shanto Paying Guest House Varanasi,0,221001,Guest House,False,False,25.31699,83.00412,1.2539690082141637
1000587761,2024,5 Bedroom Villa @ Serene Stays near Ghat & Temple,0,221010,Villa,False,True,25.30558,82.9776,1.6984384867087545
1000587814,2024,Tarang Stay .Inn,0,221007,Guest House,False,False,25.36818,83.02418,6.988227715564665
1000587988,2024,Divine Kashi   Near Shree Kashi Vishwanath Temple,0,221001,Apartment,False,True,25.3251,83.004,1.830218786052747
1000588042,2024,Namah Inn,3,221005,Hotel,False,False,25.29245,83.00135,2.3386362560058287
1000588131,2024,RadheKrishna Homestay,0,221010,Homestay,False,False,25.30368,82.98669,1.1208309959239824
1000588193,2024,Hotel Dev Kashi,3,221010,Hotel,False,False,25.30744,82.99947,0.8353355221538218
1000588361,2024,Raahi Luxury Stay,0,221001,Homestay,False,False,25.30921,83.00401,1.1598593081332804
1000588383,2024,Radhe krishna Homestays,0,221010,Homestay,False,True,25.30371,82.98676,1.114145582317769
1000588463,2024,AIM Dormitory,0,721001,Hostel,False,False,25.3127,83.0125,1.9708383846735602
1000588543,2024,SUSHILA HOMESTAY,0,221005,Apartment,False,True,25.28903,82.99937,2.640642760455176
1000588561,2024,Shree Balaji Comfort,3,221001,Hotel,False,False,25.33015,83.0205,3.4269144382407126
1000588564,2024,New divine inn,0,221011,Homestay,False,False,25.2463,82.98064,7.414124262016319
1000588591,2024,SR Homestay,0,221002,Apartment,False,True,25.33588,82.97578,3.1600370448309856
1000588946,2024,Dadi Ka Ghar,0,221010,Apartment,False,True,25.29958,82.98716,1.5018934199971008
1000589033,2024,JMK Regency,3,221001,Hotel,False,False,25.32402,83.0029,1.667693788014496
1000589161,2024,Shrija Homestay,0,221011,Homestay,False,False,25.26602,83.01533,5.592566838864848
1000589283,2024,Geeta's Homestay | 2BHK & 3BHK Apartment,0,221010,Apartment,False,False,25.30632,82.97499,1.910313403450915
1000589311,2024,Suman Paying Guest House,0,221010,Homestay,False,False,25.30938,83.00063,0.8310942533598664
1000589386,2024,Krisha-Vandana,0,221003,Homestay,False,False,25.36451,82.9717,6.210656131810094
1000589514,2024,The Royal Green Residency,0,221001,Homestay,False,False,25.30695,83.00354,1.2098803635001096
1000589606,2024,Lakshya Home Stay,0,221105,Apartment,False,True,25.402,82.88438,14.797408545813129
1000589672,2024,Kiran Banaras,0,221004,Homestay,False,False,25.31387,82.96242,3.071171243799067
1000589893,2024,Suruchi Stays,0,221001,Homestay,False,False,25.31335,83.00079,0.8055441125968095
1000589917,2024,Kashi corridor home stay,0,221001,Homestay,False,False,25.31488,83.01123,1.868558552317559
1000589943,2024,Rungta Niwas | Entire 2BHK Apartment,0,221001,Homestay,False,True,25.31826,83.01822,2.636514652339716
1000590821,2024,Stay &  Walk,0,221001,Apartment,False,True,25.32586,82.99382,1.5385936566897238
1000590841,2024,Coco Cabana,3,221010,Hotel,False,False,25.30481,82.98336,1.252454487650663
1000590842,2024,Cosy vibes homestay,0,221001,Homestay,False,False,25.33071,83.01789,3.2575967241801123
1000590962,2024,Modern guest house,0,221008,Cottage,False,False,25.27493,83.02605,5.304455574753606
1000591182,2024,Smriti Homestay,0,221001,Homestay,False,False,25.30729,83.00751,1.5603669909396234
1000591321,2024,Shree Varidhi Homestay,0,221010,Homestay,False,False,25.29572,82.97434,2.60381555366235
1000591339,2024,Matri Kripa Homes (Amrit Aashray),0,221106,Homestay,False,True,25.27094,82.9636,5.438290450487797
1000591852,2024,Mahalaxmi home stay,0,221001,Homestay,False,False,25.31036,83.00364,1.0951145197953183
1000592199,2024,The Grand Ganga View a boutique hotel,4,221005,Hotel,False,False,25.28478,83.00811,3.395474141004003
1000592442,2024,Hotel Parv,2,221001,Hotel,False,False,25.31716,83.00369,1.223929642672266
